{"type":"FeatureCollection","features":[{"geometry": {"type": "Point", "coordinates": [-79.96094400018539, 40.35851090033604]}, "type": "Feature", "id": 0, "properties": {"stop_lat": 40.358511, "zone_id": "1", "stop_lon": -79.960944, "PATRout09": "|46A|46F", "stop_id": "S17470", "stop_name": "ELMWOOD DR AT #5189"}},{"geometry": {"type": "Point", "coordinates": [-79.99228700032062, 40.35791049996038]}, "type": "Feature", "id": 1, "properties": {"stop_lat": 40.357911, "zone_id": "1", "stop_lon": -79.992287, "PATRout09": "|46A|BR", "stop_id": "S13935", "stop_name": "CURRY RD OPP NORWIN"}},{"geometry": {"type": "Point", "coordinates": [-79.99766100033116, 40.357806100316445]}, "type": "Feature", "id": 2, "properties": {"stop_lat": 40.357806, "zone_id": "1", "stop_lon": -79.997661, "PATRout09": "|35A|46B", "stop_id": "S05320", "stop_name": "BAPTIST RD AT PLYMOUTH"}},{"geometry": {"type": "Point", "coordinates": [-79.97573099982164, 40.358232100377485]}, "type": "Feature", "id": 3, "properties": {"stop_lat": 40.358232, "zone_id": "1", "stop_lon": -79.975731, "PATRout09": "|46H", "stop_id": "S19130", "stop_name": "FRICH DR AT #4765"}},{"geometry": {"type": "Point", "coordinates": [-79.96096700037523, 40.358534599762606]}, "type": "Feature", "id": 4, "properties": {"stop_lat": 40.358535, "zone_id": "1", "stop_lon": -79.960967, "PATRout09": "|46A|46F", "stop_id": "S17440", "stop_name": "ELMWOOD DR AT #5087"}},{"geometry": {"type": "Point", "coordinates": [-79.93396599948694, 40.35912409986966]}, "type": "Feature", "id": 5, "properties": {"stop_lat": 40.359124, "zone_id": "2", "stop_lon": -79.933966, "PATRout09": "|46D|51E", "stop_id": "S28800", "stop_name": "LEBANON RD AT SOUTH HILLS INDUSTRIAL PARK"}},{"geometry": {"type": "Point", "coordinates": [-80.01600500000016, 40.357544700407615]}, "type": "Feature", "id": 6, "properties": {"stop_lat": 40.357545, "zone_id": "1", "stop_lon": -80.016005, "PATRout09": "|46B", "stop_id": "S21810", "stop_name": "HAMILTON RD OPP ANDREA"}},{"geometry": {"type": "Point", "coordinates": [-79.99202299970555, 40.35801850034408]}, "type": "Feature", "id": 7, "properties": {"stop_lat": 40.358019, "zone_id": "1", "stop_lon": -79.992023, "PATRout09": "|46A|BR", "stop_id": "S13970", "stop_name": "CURRY RD AT NORWIN"}},{"geometry": {"type": "Point", "coordinates": [-80.06513200011759, 40.35659769976475]}, "type": "Feature", "id": 8, "properties": {"stop_lat": 40.356598, "zone_id": "2", "stop_lon": -80.065132, "PATRout09": "|36A", "stop_id": "X06190", "stop_name": "FT COUCH RD AT QUIGG"}},{"geometry": {"type": "Point", "coordinates": [-79.96119100049864, 40.35864679973251]}, "type": "Feature", "id": 9, "properties": {"stop_lat": 40.358647, "zone_id": "1", "stop_lon": -79.961191, "PATRout09": "|46A|46F", "stop_id": "S17430", "stop_name": "ELMWOOD DR AT #5072"}},{"geometry": {"type": "Point", "coordinates": [-80.06530900002831, 40.35662199974986]}, "type": "Feature", "id": 10, "properties": {"stop_lat": 40.356622, "zone_id": "2", "stop_lon": -80.065309, "PATRout09": "|36A", "stop_id": "X06420", "stop_name": "FT COUCH RD OPP QUIGG"}},{"geometry": {"type": "Point", "coordinates": [-79.93387799992693, 40.35919299994979]}, "type": "Feature", "id": 11, "properties": {"stop_lat": 40.359193, "zone_id": "2", "stop_lon": -79.933878, "PATRout09": "|51C|51E", "stop_id": "S70128", "stop_name": "LEBANON RD AT HARLEY DAVIDSON DRVWY FS"}},{"geometry": {"type": "Point", "coordinates": [-79.9922439994773, 40.35810129967858]}, "type": "Feature", "id": 12, "properties": {"stop_lat": 40.358101, "zone_id": "1", "stop_lon": -79.992244, "PATRout09": "|46A", "stop_id": "S35992", "stop_name": "NORWIN DR AT CURRY"}},{"geometry": {"type": "Point", "coordinates": [-80.01620699971103, 40.35766920020324]}, "type": "Feature", "id": 13, "properties": {"stop_lat": 40.357669, "zone_id": "1", "stop_lon": -80.016207, "PATRout09": "|46B", "stop_id": "S21740", "stop_name": "HAMILTON RD AT ANDREA"}},{"geometry": {"type": "Point", "coordinates": [-79.99055800037652, 40.35817350022188]}, "type": "Feature", "id": 14, "properties": {"stop_lat": 40.358173, "zone_id": "1", "stop_lon": -79.990558, "PATRout09": "|46D|51C", "stop_id": "S09420", "stop_name": "BROWNSVILLE RD OPP CURRY"}},{"geometry": {"type": "Point", "coordinates": [-79.97287799997973, 40.35852859975557]}, "type": "Feature", "id": 15, "properties": {"stop_lat": 40.358529, "zone_id": "1", "stop_lon": -79.972878, "PATRout09": "|46A", "stop_id": "S14580", "stop_name": "DOYLE RD AT #4830"}},{"geometry": {"type": "Point", "coordinates": [-79.99101500044902, 40.35818490032865]}, "type": "Feature", "id": 16, "properties": {"stop_lat": 40.358185, "zone_id": "1", "stop_lon": -79.991015, "PATRout09": "|46A|BR", "stop_id": "S13930", "stop_name": "CURRY RD AT BROWNSVILLE"}},{"geometry": {"type": "Point", "coordinates": [-79.97907399986987, 40.35841760001467]}, "type": "Feature", "id": 17, "properties": {"stop_lat": 40.358418, "zone_id": "1", "stop_lon": -79.979074, "PATRout09": "|46H", "stop_id": "S44665", "stop_name": "STILLEY RD AT DOYLE"}},{"geometry": {"type": "Point", "coordinates": [-79.95874300001944, 40.35887299974807]}, "type": "Feature", "id": 18, "properties": {"stop_lat": 40.358873, "zone_id": "1", "stop_lon": -79.958743, "PATRout09": "|46F", "stop_id": "S70107", "stop_name": "PROSPECT RD OPP CAPREL TOWNHOUSES"}},{"geometry": {"type": "Point", "coordinates": [-79.93405799941621, 40.3593639997123]}, "type": "Feature", "id": 19, "properties": {"stop_lat": 40.359364, "zone_id": "2", "stop_lon": -79.934058, "PATRout09": "|51C|51E", "stop_id": "S70129", "stop_name": "LEBANON RD AT HARLEY DAVIDSON"}},{"geometry": {"type": "Point", "coordinates": [-79.93416899987515, 40.35937569971464]}, "type": "Feature", "id": 20, "properties": {"stop_lat": 40.359376, "zone_id": "1A", "stop_lon": -79.934169, "PATRout09": "|46A|46D|46F|51C|51E", "stop_id": "S28560", "stop_name": "LEBANON RD AT AIRPORT EAST INDUS PARK"}},{"geometry": {"type": "Point", "coordinates": [-79.97785100002045, 40.35854940017584]}, "type": "Feature", "id": 21, "properties": {"stop_lat": 40.358549, "zone_id": "1", "stop_lon": -79.977851, "PATRout09": "|46H|51C", "stop_id": "S14650", "stop_name": "DOYLE RD OPP GERARD"}},{"geometry": {"type": "Point", "coordinates": [-79.99409499972934, 40.358265900418814]}, "type": "Feature", "id": 22, "properties": {"stop_lat": 40.358266, "zone_id": "1", "stop_lon": -79.994095, "PATRout09": "|46A", "stop_id": "S40835", "stop_name": "ROLLING HILLS RD AT #4632"}},{"geometry": {"type": "Point", "coordinates": [-79.9906819997215, 40.35833879981161]}, "type": "Feature", "id": 23, "properties": {"stop_lat": 40.358339, "zone_id": "1", "stop_lon": -79.990682, "PATRout09": "|46A|46D|51C|BR", "stop_id": "S08440", "stop_name": "BROWNSVILLE RD AT CURRY"}},{"geometry": {"type": "Point", "coordinates": [-79.9572249997131, 40.35898359995597]}, "type": "Feature", "id": 24, "properties": {"stop_lat": 40.358984, "zone_id": "1", "stop_lon": -79.957225, "PATRout09": "|46A|46F", "stop_id": "S06350", "stop_name": "BERYL DR AT #1724"}},{"geometry": {"type": "Point", "coordinates": [-79.97790099977139, 40.35861349972157]}, "type": "Feature", "id": 25, "properties": {"stop_lat": 40.358613, "zone_id": "1", "stop_lon": -79.977901, "PATRout09": "|46A|46H|51C", "stop_id": "S14520", "stop_name": "DOYLE RD AT GERARD"}},{"geometry": {"type": "Point", "coordinates": [-79.99378099953628, 40.35831600023356]}, "type": "Feature", "id": 26, "properties": {"stop_lat": 40.358316, "zone_id": "1", "stop_lon": -79.993781, "PATRout09": "|46A", "stop_id": "S40831", "stop_name": "ROLLING HILLS RD AT #4631"}},{"geometry": {"type": "Point", "coordinates": [-79.96597599976407, 40.3589131995644]}, "type": "Feature", "id": 27, "properties": {"stop_lat": 40.358913, "zone_id": "1", "stop_lon": -79.965976, "PATRout09": "|46A|46F", "stop_id": "S17010", "stop_name": "E WILLOCK RD AT SENIOR"}},{"geometry": {"type": "Point", "coordinates": [-80.00390200040198, 40.358220000070126]}, "type": "Feature", "id": 28, "properties": {"stop_lat": 40.35822, "zone_id": "1", "stop_lon": -80.003902, "PATRout09": "|35A", "stop_id": "S70076", "stop_name": "GROVE RD AT VILLAGE LANE"}},{"geometry": {"type": "Point", "coordinates": [-79.97934699949201, 40.35869820001555]}, "type": "Feature", "id": 29, "properties": {"stop_lat": 40.358698, "zone_id": "1", "stop_lon": -79.979347, "PATRout09": "|46A|46H|51C", "stop_id": "S14620", "stop_name": "DOYLE RD AT STILLEY"}},{"geometry": {"type": "Point", "coordinates": [-80.1100539995107, 40.35619160020343]}, "type": "Feature", "id": 30, "properties": {"stop_lat": 40.356192, "zone_id": "2", "stop_lon": -80.110054, "PATRout09": "|36A|41B|44U", "stop_id": "X00450", "stop_name": "BANK ST AT DEWEY"}},{"geometry": {"type": "Point", "coordinates": [-79.96614000045473, 40.359090800229545]}, "type": "Feature", "id": 31, "properties": {"stop_lat": 40.359091, "zone_id": "1", "stop_lon": -79.96614, "PATRout09": "|46A|46F", "stop_id": "S17040", "stop_name": "E WILLOCK RD OPP SENIOR"}},{"geometry": {"type": "Point", "coordinates": [-79.9562520001456, 40.35929960005617]}, "type": "Feature", "id": 32, "properties": {"stop_lat": 40.3593, "zone_id": "1", "stop_lon": -79.956252, "PATRout09": "|46A|46F", "stop_id": "S31930", "stop_name": "MALOR DR OPP ELDERSLEE"}},{"geometry": {"type": "Point", "coordinates": [-79.99243500033653, 40.35860839961705]}, "type": "Feature", "id": 33, "properties": {"stop_lat": 40.358608, "zone_id": "1", "stop_lon": -79.992435, "PATRout09": "|46A", "stop_id": "S35994", "stop_name": "NORWIN DR OPP ROLLING HILLS"}},{"geometry": {"type": "Point", "coordinates": [-79.99256800007167, 40.358610400109214]}, "type": "Feature", "id": 34, "properties": {"stop_lat": 40.35861, "zone_id": "1", "stop_lon": -79.992568, "PATRout09": "|46A", "stop_id": "S40833", "stop_name": "ROLLING HILLS RD AT NORWIN"}},{"geometry": {"type": "Point", "coordinates": [-80.0037130004286, 40.358401999990576]}, "type": "Feature", "id": 35, "properties": {"stop_lat": 40.358402, "zone_id": "1", "stop_lon": -80.003713, "PATRout09": "|46B", "stop_id": "S21670", "stop_name": "GROVE RD AT VILLAGE"}},{"geometry": {"type": "Point", "coordinates": [-79.97573700032407, 40.35903619962375]}, "type": "Feature", "id": 36, "properties": {"stop_lat": 40.359036, "zone_id": "1", "stop_lon": -79.975737, "PATRout09": "|46H", "stop_id": "S19070", "stop_name": "FRICH DR AT DOYLE"}},{"geometry": {"type": "Point", "coordinates": [-79.97614700025098, 40.35902929956725]}, "type": "Feature", "id": 37, "properties": {"stop_lat": 40.359029, "zone_id": "1", "stop_lon": -79.976147, "PATRout09": "|46H|51C", "stop_id": "S14510", "stop_name": "DOYLE RD AT FRICH"}},{"geometry": {"type": "Point", "coordinates": [-80.05540100036113, 40.35749989985894]}, "type": "Feature", "id": 38, "properties": {"stop_lat": 40.3575, "zone_id": "2", "stop_lon": -80.055401, "PATRout09": "|36A", "stop_id": "X06720", "stop_name": "GILKESON RD AT #187"}},{"geometry": {"type": "Point", "coordinates": [-80.11035199959397, 40.35643299981345]}, "type": "Feature", "id": 39, "properties": {"stop_lat": 40.356433, "zone_id": "2", "stop_lon": -80.110352, "PATRout09": "|36A|41B|44U", "stop_id": "X05120", "stop_name": "DEWEY AVE OPP BANK"}},{"geometry": {"type": "Point", "coordinates": [-80.05518899950604, 40.35756529965179]}, "type": "Feature", "id": 40, "properties": {"stop_lat": 40.357565, "zone_id": "2", "stop_lon": -80.055189, "PATRout09": "|36A", "stop_id": "X06800", "stop_name": "GILKESON RD OPP #183"}},{"geometry": {"type": "Point", "coordinates": [-79.97564599960184, 40.359148600292905]}, "type": "Feature", "id": 41, "properties": {"stop_lat": 40.359149, "zone_id": "1", "stop_lon": -79.975646, "PATRout09": "|46A|51C", "stop_id": "S14640", "stop_name": "DOYLE RD OPP FRICH"}},{"geometry": {"type": "Point", "coordinates": [-79.99565700056328, 40.3588751999295]}, "type": "Feature", "id": 42, "properties": {"stop_lat": 40.358875, "zone_id": "1", "stop_lon": -79.995657, "PATRout09": "|35A|46B", "stop_id": "S05400", "stop_name": "BAPTIST RD OPP BALDWIN MANOR"}},{"geometry": {"type": "Point", "coordinates": [-80.06558099960345, 40.35751699964228]}, "type": "Feature", "id": 43, "properties": {"stop_lat": 40.357517, "zone_id": "2", "stop_lon": -80.065581, "PATRout09": "|36A", "stop_id": "X06390", "stop_name": "FT COUCH RD OPP HARROGATE"}},{"geometry": {"type": "Point", "coordinates": [-80.1132289999015, 40.356566099601444]}, "type": "Feature", "id": 44, "properties": {"stop_lat": 40.356566, "zone_id": "2", "stop_lon": -80.113229, "PATRout09": "|29E|31D|31E|33D|33E", "stop_id": "W24740", "stop_name": "WASHINGTON AVE AT JAMES"}},{"geometry": {"type": "Point", "coordinates": [-80.06569199945542, 40.35756800006406]}, "type": "Feature", "id": 45, "properties": {"stop_lat": 40.357568, "zone_id": "2", "stop_lon": -80.065692, "PATRout09": "|36A", "stop_id": "X06080", "stop_name": "FT COUCH RD AT HARROGATE"}},{"geometry": {"type": "Point", "coordinates": [-80.11331699948104, 40.356631200097716]}, "type": "Feature", "id": 46, "properties": {"stop_lat": 40.356631, "zone_id": "2", "stop_lon": -80.113317, "PATRout09": "|29E|31D|31E|33D|33E", "stop_id": "W25210", "stop_name": "WASHINGTON AVE OPP JAMES FS (POST OFFICE)"}},{"geometry": {"type": "Point", "coordinates": [-79.99567900016808, 40.35899470022565]}, "type": "Feature", "id": 47, "properties": {"stop_lat": 40.358995, "zone_id": "1", "stop_lon": -79.995679, "PATRout09": "|35A|46B", "stop_id": "S05240", "stop_name": "BAPTIST RD AT BALDWIN MANOR"}},{"geometry": {"type": "Point", "coordinates": [-79.98045600039039, 40.35929169991667]}, "type": "Feature", "id": 48, "properties": {"stop_lat": 40.359292, "zone_id": "1", "stop_lon": -79.980456, "PATRout09": "|46H", "stop_id": "S44700", "stop_name": "STILLEY RD OPP PROSPECT"}},{"geometry": {"type": "Point", "coordinates": [-79.95560999955264, 40.359802200371064]}, "type": "Feature", "id": 49, "properties": {"stop_lat": 40.359802, "zone_id": "1", "stop_lon": -79.95561, "PATRout09": "|46A|46F", "stop_id": "S31900", "stop_name": "MALOR DR AT HOLLYROOD"}},{"geometry": {"type": "Point", "coordinates": [-79.95860700002723, 40.359777400276606]}, "type": "Feature", "id": 50, "properties": {"stop_lat": 40.359777, "zone_id": "1", "stop_lon": -79.958607, "PATRout09": "|46A|46F", "stop_id": "S06330", "stop_name": "BERYL DR AT #1690"}},{"geometry": {"type": "Point", "coordinates": [-79.98042099987624, 40.35936950028786]}, "type": "Feature", "id": 51, "properties": {"stop_lat": 40.35937, "zone_id": "1", "stop_lon": -79.980421, "PATRout09": "|46A|46H", "stop_id": "S44690", "stop_name": "STILLEY RD AT PROSPECT"}},{"geometry": {"type": "Point", "coordinates": [-80.06971000054587, 40.35761060004133]}, "type": "Feature", "id": 52, "properties": {"stop_lat": 40.357611, "zone_id": "2", "stop_lon": -80.06971, "PATRout09": "|36A", "stop_id": "X06440", "stop_name": "FT COUCH RD OPP TUSCANNY"}},{"geometry": {"type": "Point", "coordinates": [-80.05675400020672, 40.357924999944096]}, "type": "Feature", "id": 53, "properties": {"stop_lat": 40.357925, "zone_id": "2", "stop_lon": -80.056754, "PATRout09": "|36A", "stop_id": "X06740", "stop_name": "GILKESON RD AT #223"}},{"geometry": {"type": "Point", "coordinates": [-79.96635799957392, 40.359708599967114]}, "type": "Feature", "id": 54, "properties": {"stop_lat": 40.359709, "zone_id": "1", "stop_lon": -79.966358, "PATRout09": "|46A|46F", "stop_id": "S17000", "stop_name": "E WILLOCK RD AT #4902"}},{"geometry": {"type": "Point", "coordinates": [-79.90774300001391, 40.360828700440585]}, "type": "Feature", "id": 55, "properties": {"stop_lat": 40.360829, "zone_id": "1A", "stop_lon": -79.907743, "PATRout09": "|55M|56C", "stop_id": "S10560", "stop_name": "BUTTERMILK HOLLOW RD OPP THOMPSON RUN"}},{"geometry": {"type": "Point", "coordinates": [-80.06951199968184, 40.35772100043622]}, "type": "Feature", "id": 56, "properties": {"stop_lat": 40.357721, "zone_id": "2", "stop_lon": -80.069512, "PATRout09": "|36A", "stop_id": "X06300", "stop_name": "FT COUCH RD AT TUSCANNY"}},{"geometry": {"type": "Point", "coordinates": [-79.90760199953256, 40.36087850029939]}, "type": "Feature", "id": 57, "properties": {"stop_lat": 40.360878, "zone_id": "1A", "stop_lon": -79.907602, "PATRout09": "|55M|56C", "stop_id": "S34290", "stop_name": "MIFFLIN RD AT THOMPSON RUN FS"}},{"geometry": {"type": "Point", "coordinates": [-79.98053400001497, 40.3595309004099]}, "type": "Feature", "id": 58, "properties": {"stop_lat": 40.359531, "zone_id": "1", "stop_lon": -79.980534, "PATRout09": "|35A|46A|46F|51C", "stop_id": "S39880", "stop_name": "PROSPECT RD AT STILLEY"}},{"geometry": {"type": "Point", "coordinates": [-80.0566640002655, 40.358038500331155]}, "type": "Feature", "id": 59, "properties": {"stop_lat": 40.358038, "zone_id": "2", "stop_lon": -80.056664, "PATRout09": "|36A", "stop_id": "X06730", "stop_name": "GILKESON RD AT #223"}},{"geometry": {"type": "Point", "coordinates": [-79.96630500057402, 40.35986380016597]}, "type": "Feature", "id": 60, "properties": {"stop_lat": 40.359864, "zone_id": "1", "stop_lon": -79.966305, "PATRout09": "|46A|46F", "stop_id": "S16960", "stop_name": "E WILLOCK RD AT JUNIOR"}},{"geometry": {"type": "Point", "coordinates": [-79.86787699970246, 40.36172049995854]}, "type": "Feature", "id": 61, "properties": {"stop_lat": 40.36172, "zone_id": "2", "stop_lon": -79.867877, "PATRout09": "|53H|55B", "stop_id": "S38740", "stop_name": "PENNSYLVANIA AVE OPP CONLIN"}},{"geometry": {"type": "Point", "coordinates": [-79.86817599941497, 40.361737999645776]}, "type": "Feature", "id": 62, "properties": {"stop_lat": 40.361738, "zone_id": "2", "stop_lon": -79.868176, "PATRout09": "|53H|55B", "stop_id": "S13400", "stop_name": "CONLIN ST AT PENNSYLVANIA"}},{"geometry": {"type": "Point", "coordinates": [-79.96336299952102, 40.3599660996071]}, "type": "Feature", "id": 63, "properties": {"stop_lat": 40.359966, "zone_id": "1", "stop_lon": -79.963363, "PATRout09": "|46A|46F", "stop_id": "S17520", "stop_name": "ELMWOOD DR AT SENIOR"}},{"geometry": {"type": "Point", "coordinates": [-79.86789899982661, 40.36183339988565]}, "type": "Feature", "id": 64, "properties": {"stop_lat": 40.361833, "zone_id": "2", "stop_lon": -79.867899, "PATRout09": "|53H|55B", "stop_id": "S38490", "stop_name": "PENNSYLVANIA AVE AT CONLIN"}},{"geometry": {"type": "Point", "coordinates": [-79.98020699981245, 40.3597508997717]}, "type": "Feature", "id": 65, "properties": {"stop_lat": 40.359751, "zone_id": "1", "stop_lon": -79.980207, "PATRout09": "|35A|46A|46F|51C", "stop_id": "S39770", "stop_name": "PROSPECT RD AT STILLEY FS"}},{"geometry": {"type": "Point", "coordinates": [-79.85888500044905, 40.36204370019876]}, "type": "Feature", "id": 66, "properties": {"stop_lat": 40.362044, "zone_id": "2", "stop_lon": -79.858885, "PATRout09": "|53H", "stop_id": "S38540", "stop_name": "PENNSYLVANIA AVE AT MELLON"}},{"geometry": {"type": "Point", "coordinates": [-79.96374800006814, 40.36008349981966]}, "type": "Feature", "id": 67, "properties": {"stop_lat": 40.360084, "zone_id": "1", "stop_lon": -79.963748, "PATRout09": "|46A|46F", "stop_id": "S17530", "stop_name": "ELMWOOD DR AT SENIOR"}},{"geometry": {"type": "Point", "coordinates": [-80.10957199992964, 40.357198999730166]}, "type": "Feature", "id": 68, "properties": {"stop_lat": 40.357199, "zone_id": "2", "stop_lon": -80.109572, "PATRout09": "|36A|41B|44U", "stop_id": "X05130", "stop_name": "DEWEY AVE AT STATION"}},{"geometry": {"type": "Point", "coordinates": [-79.86169700000062, 40.36203289974435]}, "type": "Feature", "id": 69, "properties": {"stop_lat": 40.362033, "zone_id": "2", "stop_lon": -79.861697, "PATRout09": "|53H|55B", "stop_id": "S38680", "stop_name": "PENNSYLVANIA AVE AT TAFT"}},{"geometry": {"type": "Point", "coordinates": [-79.85641899986038, 40.362132299768646]}, "type": "Feature", "id": 70, "properties": {"stop_lat": 40.362132, "zone_id": "2", "stop_lon": -79.856419, "PATRout09": "|59", "stop_id": "S38470", "stop_name": "PENNSYLVANIA AVE AT CARNEGIE"}},{"geometry": {"type": "Point", "coordinates": [-79.85499500016957, 40.36216649986298]}, "type": "Feature", "id": 71, "properties": {"stop_lat": 40.362167, "zone_id": "2", "stop_lon": -79.854995, "PATRout09": "|59", "stop_id": "S13730", "stop_name": "CRAWFORD ST AT MIFFLIN"}},{"geometry": {"type": "Point", "coordinates": [-79.85857799994982, 40.36213400009206]}, "type": "Feature", "id": 72, "properties": {"stop_lat": 40.362134, "zone_id": "2", "stop_lon": -79.858578, "PATRout09": "|55B|59", "stop_id": "S38530", "stop_name": "PENNSYLVANIA AVE AT MELLON"}},{"geometry": {"type": "Point", "coordinates": [-79.86392099975943, 40.362051700100515]}, "type": "Feature", "id": 73, "properties": {"stop_lat": 40.362052, "zone_id": "2", "stop_lon": -79.863921, "PATRout09": "|53H|55B", "stop_id": "S38570", "stop_name": "PENNSYLVANIA AVE AT NEEL FS"}},{"geometry": {"type": "Point", "coordinates": [-79.8560699997175, 40.36220170011743]}, "type": "Feature", "id": 74, "properties": {"stop_lat": 40.362202, "zone_id": "2", "stop_lon": -79.85607, "PATRout09": "|59", "stop_id": "S38460", "stop_name": "PENNSYLVANIA AVE AT CARNEGIE"}},{"geometry": {"type": "Point", "coordinates": [-79.86137700053392, 40.362117100233974]}, "type": "Feature", "id": 75, "properties": {"stop_lat": 40.362117, "zone_id": "2", "stop_lon": -79.861377, "PATRout09": "|53H", "stop_id": "S38670", "stop_name": "PENNSYLVANIA AVE AT TAFT"}},{"geometry": {"type": "Point", "coordinates": [-80.0660389998498, 40.358214999948856]}, "type": "Feature", "id": 76, "properties": {"stop_lat": 40.358215, "zone_id": "2", "stop_lon": -80.066039, "PATRout09": "|36A", "stop_id": "X06280", "stop_name": "FT COUCH RD OPP SKENDER"}},{"geometry": {"type": "Point", "coordinates": [-80.07163399983934, 40.35810400001212]}, "type": "Feature", "id": 77, "properties": {"stop_lat": 40.358104, "zone_id": "2", "stop_lon": -80.071634, "PATRout09": "|36A", "stop_id": "X10720", "stop_name": "MCMILLAN RD AT FT COUCH FS"}},{"geometry": {"type": "Point", "coordinates": [-79.86697700007343, 40.36204339994821]}, "type": "Feature", "id": 78, "properties": {"stop_lat": 40.362043, "zone_id": "2", "stop_lon": -79.866977, "PATRout09": "|53H|55B", "stop_id": "S38700", "stop_name": "PENNSYLVANIA AVE AT VERMONT"}},{"geometry": {"type": "Point", "coordinates": [-79.85885999992213, 40.36220970000385]}, "type": "Feature", "id": 79, "properties": {"stop_lat": 40.36221, "zone_id": "2", "stop_lon": -79.85886, "PATRout09": "|53H|55B|59", "stop_id": "S33670", "stop_name": "MELLON ST AT PENNSYLVANIA"}},{"geometry": {"type": "Point", "coordinates": [-79.9615770005382, 40.360295000125554]}, "type": "Feature", "id": 80, "properties": {"stop_lat": 40.360295, "zone_id": "1", "stop_lon": -79.961577, "PATRout09": "|35A", "stop_id": "S39665", "stop_name": "PROSPECT RD AT BERYL"}},{"geometry": {"type": "Point", "coordinates": [-79.86362799971405, 40.362135599781475]}, "type": "Feature", "id": 81, "properties": {"stop_lat": 40.362136, "zone_id": "2", "stop_lon": -79.863628, "PATRout09": "|53H|55B", "stop_id": "S38750", "stop_name": "PENNSYLVANIA AVE OPP NEEL"}},{"geometry": {"type": "Point", "coordinates": [-79.85471699948245, 40.362307000250816]}, "type": "Feature", "id": 82, "properties": {"stop_lat": 40.362307, "zone_id": "2", "stop_lon": -79.854717, "PATRout09": "|59", "stop_id": "S13720", "stop_name": "CRAWFORD ST AT MIFFLIN"}},{"geometry": {"type": "Point", "coordinates": [-80.0715549994684, 40.35815919962148]}, "type": "Feature", "id": 83, "properties": {"stop_lat": 40.358159, "zone_id": "2", "stop_lon": -80.071555, "PATRout09": "|36A", "stop_id": "X06110", "stop_name": "FT COUCH RD AT MCMILLAN"}},{"geometry": {"type": "Point", "coordinates": [-79.86654900023325, 40.36211899975418]}, "type": "Feature", "id": 84, "properties": {"stop_lat": 40.362119, "zone_id": "2", "stop_lon": -79.866549, "PATRout09": "|53H|55B", "stop_id": "S38690", "stop_name": "PENNSYLVANIA AVE AT VERMONT"}},{"geometry": {"type": "Point", "coordinates": [-80.06581099950228, 40.35831200020839]}, "type": "Feature", "id": 85, "properties": {"stop_lat": 40.358312, "zone_id": "2", "stop_lon": -80.065811, "PATRout09": "|36A", "stop_id": "X06290", "stop_name": "FT COUCH RD AT SKENDER FS"}},{"geometry": {"type": "Point", "coordinates": [-79.85376699952778, 40.36245119980528]}, "type": "Feature", "id": 86, "properties": {"stop_lat": 40.362451, "zone_id": "2", "stop_lon": -79.853767, "PATRout09": "|59", "stop_id": "S13710", "stop_name": "CRAWFORD ST AT JUNO"}},{"geometry": {"type": "Point", "coordinates": [-80.00091000009276, 40.359686999954455]}, "type": "Feature", "id": 87, "properties": {"stop_lat": 40.359687, "zone_id": "1", "stop_lon": -80.00091, "PATRout09": "|35A|46B", "stop_id": "S70077", "stop_name": "VILLAGE LANE AT WEYMAN"}},{"geometry": {"type": "Point", "coordinates": [-80.00070800015439, 40.3596991003984]}, "type": "Feature", "id": 88, "properties": {"stop_lat": 40.359699, "zone_id": "1", "stop_lon": -80.000708, "PATRout09": "|BM", "stop_id": "S48600", "stop_name": "WEYMAN RD OPP VILLAGE LANE"}},{"geometry": {"type": "Point", "coordinates": [-79.86947600008176, 40.36219379958362]}, "type": "Feature", "id": 89, "properties": {"stop_lat": 40.362194, "zone_id": "2", "stop_lon": -79.869476, "PATRout09": "|53H|55B", "stop_id": "S13380", "stop_name": "CONLIN ST AT CAROLINA"}},{"geometry": {"type": "Point", "coordinates": [-79.85387299993725, 40.36248660009114]}, "type": "Feature", "id": 90, "properties": {"stop_lat": 40.362487, "zone_id": "2", "stop_lon": -79.853873, "PATRout09": "|59", "stop_id": "S13700", "stop_name": "CRAWFORD ST AT JUNO"}},{"geometry": {"type": "Point", "coordinates": [-80.0008579998011, 40.3598263000404]}, "type": "Feature", "id": 91, "properties": {"stop_lat": 40.359826, "zone_id": "1", "stop_lon": -80.000858, "PATRout09": "|46B", "stop_id": "S48587", "stop_name": "WEYMAN RD AT VILLAGE LANE"}},{"geometry": {"type": "Point", "coordinates": [-79.96025599982458, 40.36068579997116]}, "type": "Feature", "id": 92, "properties": {"stop_lat": 40.360686, "zone_id": "1", "stop_lon": -79.960256, "PATRout09": "|46A|46F", "stop_id": "S06310", "stop_name": "BERYL DR AT #1644"}},{"geometry": {"type": "Point", "coordinates": [-79.86967599945417, 40.36239380020484]}, "type": "Feature", "id": 93, "properties": {"stop_lat": 40.362394, "zone_id": "2", "stop_lon": -79.869676, "PATRout09": "|53H", "stop_id": "S70134", "stop_name": "CONLIN ST AT CAROLINA FS"}},{"geometry": {"type": "Point", "coordinates": [-79.96442000005771, 40.36062220019635]}, "type": "Feature", "id": 94, "properties": {"stop_lat": 40.360622, "zone_id": "1", "stop_lon": -79.96442, "PATRout09": "|46A|46F", "stop_id": "S17420", "stop_name": "ELMWOOD DR AT #4904"}},{"geometry": {"type": "Point", "coordinates": [-79.85224300027372, 40.36282680039553]}, "type": "Feature", "id": 95, "properties": {"stop_lat": 40.362827, "zone_id": "2", "stop_lon": -79.852243, "PATRout09": "|59", "stop_id": "S13810", "stop_name": "CRAWFORD ST AT WOOL"}},{"geometry": {"type": "Point", "coordinates": [-79.9569349994429, 40.360875199824044]}, "type": "Feature", "id": 96, "properties": {"stop_lat": 40.360875, "zone_id": "1", "stop_lon": -79.956935, "PATRout09": "|46A|46F", "stop_id": "S22330", "stop_name": "HOLLYROOD DR AT #1723"}},{"geometry": {"type": "Point", "coordinates": [-79.85222800009676, 40.36290440018821]}, "type": "Feature", "id": 97, "properties": {"stop_lat": 40.362904, "zone_id": "2", "stop_lon": -79.852228, "PATRout09": "|59", "stop_id": "S13740", "stop_name": "CRAWFORD ST AT MONTEREY"}},{"geometry": {"type": "Point", "coordinates": [-79.96456500002851, 40.360812299775105]}, "type": "Feature", "id": 98, "properties": {"stop_lat": 40.360812, "zone_id": "1", "stop_lon": -79.964565, "PATRout09": "|46A|46F", "stop_id": "S17410", "stop_name": "ELMWOOD DR AT #4879"}},{"geometry": {"type": "Point", "coordinates": [-79.870435000422, 40.36258330028852]}, "type": "Feature", "id": 99, "properties": {"stop_lat": 40.362583, "zone_id": "2", "stop_lon": -79.870435, "PATRout09": "|55B", "stop_id": "S13410", "stop_name": "CONLIN ST AT WORTON"}},{"geometry": {"type": "Point", "coordinates": [-79.85206899966805, 40.362927500243636]}, "type": "Feature", "id": 100, "properties": {"stop_lat": 40.362927, "zone_id": "2", "stop_lon": -79.852069, "PATRout09": "|59", "stop_id": "S13750", "stop_name": "CRAWFORD ST AT MONTEREY"}},{"geometry": {"type": "Point", "coordinates": [-80.05972800052572, 40.35901600035151]}, "type": "Feature", "id": 101, "properties": {"stop_lat": 40.359016, "zone_id": "2", "stop_lon": -80.059728, "PATRout09": "|36A", "stop_id": "X06700", "stop_name": "GILKESON RD AT OLD GILKESON"}},{"geometry": {"type": "Point", "coordinates": [-79.96680500022796, 40.360842699803804]}, "type": "Feature", "id": 102, "properties": {"stop_lat": 40.360843, "zone_id": "1", "stop_lon": -79.966805, "PATRout09": "|46A|46F", "stop_id": "S17030", "stop_name": "E WILLOCK RD OPP #4871"}},{"geometry": {"type": "Point", "coordinates": [-80.11071000006015, 40.35801209991859]}, "type": "Feature", "id": 103, "properties": {"stop_lat": 40.358012, "zone_id": "2", "stop_lon": -80.11071, "PATRout09": "|36A|41B|44U", "stop_id": "X15160", "stop_name": "RAILROAD ST AT STATION"}},{"geometry": {"type": "Point", "coordinates": [-79.85894500015326, 40.36290490024943]}, "type": "Feature", "id": 104, "properties": {"stop_lat": 40.362905, "zone_id": "2", "stop_lon": -79.858945, "PATRout09": "|53H|55B|59", "stop_id": "S33650", "stop_name": "MELLON ST AT HIGHLAND FS"}},{"geometry": {"type": "Point", "coordinates": [-79.8588449996453, 40.36292410029763]}, "type": "Feature", "id": 105, "properties": {"stop_lat": 40.362924, "zone_id": "2", "stop_lon": -79.858845, "PATRout09": "|53H|55B|59", "stop_id": "S33710", "stop_name": "MELLON ST OPP HIGHLAND"}},{"geometry": {"type": "Point", "coordinates": [-80.06033100046604, 40.359120999818856]}, "type": "Feature", "id": 106, "properties": {"stop_lat": 40.359121, "zone_id": "2", "stop_lon": -80.060331, "PATRout09": "|36A", "stop_id": "X06790", "stop_name": "GILKESON RD OPP OLD GILKESON"}},{"geometry": {"type": "Point", "coordinates": [-79.9799480000279, 40.360718900105034]}, "type": "Feature", "id": 107, "properties": {"stop_lat": 40.360719, "zone_id": "1", "stop_lon": -79.979948, "PATRout09": "|35A|51C", "stop_id": "S39655", "stop_name": "PROSPECT RD AT BAUMAN"}},{"geometry": {"type": "Point", "coordinates": [-79.97984199943063, 40.36072890013176]}, "type": "Feature", "id": 108, "properties": {"stop_lat": 40.360729, "zone_id": "1", "stop_lon": -79.979842, "PATRout09": "|35A|46A|46F|51C", "stop_id": "S39830", "stop_name": "PROSPECT RD AT BAUMAN"}},{"geometry": {"type": "Point", "coordinates": [-80.11233699952403, 40.358100900113506]}, "type": "Feature", "id": 109, "properties": {"stop_lat": 40.358101, "zone_id": "2", "stop_lon": -80.112337, "PATRout09": "|29E|31D|31E|33D|33E", "stop_id": "W24400", "stop_name": "WASHINGTON AVE AT STATION NS"}},{"geometry": {"type": "Point", "coordinates": [-79.98000000021777, 40.360781199810354]}, "type": "Feature", "id": 110, "properties": {"stop_lat": 40.360781, "zone_id": "1", "stop_lon": -79.98, "PATRout09": "|35A|46A|46F|51C", "stop_id": "S39660", "stop_name": "PROSPECT RD OPP BAUMAN"}},{"geometry": {"type": "Point", "coordinates": [-80.10542699995752, 40.35831199973729]}, "type": "Feature", "id": 111, "properties": {"stop_lat": 40.358312, "zone_id": "2", "stop_lon": -80.105427, "PATRout09": "|36A|41B", "stop_id": "X02200", "stop_name": "BOWER HILL RD AT MCLAUGHLIN"}},{"geometry": {"type": "Point", "coordinates": [-80.11047899954639, 40.358257000345795]}, "type": "Feature", "id": 112, "properties": {"stop_lat": 40.358257, "zone_id": "2", "stop_lon": -80.110479, "PATRout09": "|41B|44U", "stop_id": "X15150", "stop_name": "RAILROAD ST AT #435 (STATION)"}},{"geometry": {"type": "Point", "coordinates": [-80.10510000047448, 40.358370200069565]}, "type": "Feature", "id": 113, "properties": {"stop_lat": 40.35837, "zone_id": "2", "stop_lon": -80.1051, "PATRout09": "|36A|41B|44U", "stop_id": "X02590", "stop_name": "BOWER HILL RD OPP MCLAUGHLIN"}},{"geometry": {"type": "Point", "coordinates": [-80.0155120003279, 40.360191800329616]}, "type": "Feature", "id": 114, "properties": {"stop_lat": 40.360192, "zone_id": "1", "stop_lon": -80.015512, "PATRout09": "|46B", "stop_id": "S21830", "stop_name": "HAMILTON RD OPP MIDDLEBORO"}},{"geometry": {"type": "Point", "coordinates": [-79.95779100037201, 40.361345900237566]}, "type": "Feature", "id": 115, "properties": {"stop_lat": 40.361346, "zone_id": "1", "stop_lon": -79.957791, "PATRout09": "|46A|46F", "stop_id": "S22280", "stop_name": "HOLLYROOD DR AT DUNLUCE"}},{"geometry": {"type": "Point", "coordinates": [-79.9669299995963, 40.36119589992745]}, "type": "Feature", "id": 116, "properties": {"stop_lat": 40.361196, "zone_id": "1", "stop_lon": -79.96693, "PATRout09": "|46A|46F", "stop_id": "S16990", "stop_name": "E WILLOCK RD AT #4871"}},{"geometry": {"type": "Point", "coordinates": [-79.9908479996106, 40.36073649971348]}, "type": "Feature", "id": 117, "properties": {"stop_lat": 40.360737, "zone_id": "1", "stop_lon": -79.990848, "PATRout09": "|46A|46D|51C|BR", "stop_id": "S08190", "stop_name": "BROWNSVILLE RD AT BAPTIST FS"}},{"geometry": {"type": "Point", "coordinates": [-79.9621909997084, 40.36129700017576]}, "type": "Feature", "id": 118, "properties": {"stop_lat": 40.361297, "zone_id": "1", "stop_lon": -79.962191, "PATRout09": "|35A", "stop_id": "S39666", "stop_name": "PROSPECT RD OPP BERYL"}},{"geometry": {"type": "Point", "coordinates": [-79.93221999979039, 40.36189459977013]}, "type": "Feature", "id": 119, "properties": {"stop_lat": 40.361895, "zone_id": "2", "stop_lon": -79.93222, "PATRout09": "|46D|51C|51E|53C", "stop_id": "S28690", "stop_name": "LEBANON RD AT NOBLE (W MIFFLIN GARAGE)"}},{"geometry": {"type": "Point", "coordinates": [-80.07372200007347, 40.35913289974377]}, "type": "Feature", "id": 120, "properties": {"stop_lat": 40.359133, "zone_id": "2", "stop_lon": -80.073722, "PATRout09": "|36A", "stop_id": "X12710", "stop_name": "PAINTERS RUN RD AT MCMILLAN"}},{"geometry": {"type": "Point", "coordinates": [-79.99397000003474, 40.360735599927445]}, "type": "Feature", "id": 121, "properties": {"stop_lat": 40.360736, "zone_id": "1", "stop_lon": -79.99397, "PATRout09": "|35A|46B", "stop_id": "S05450", "stop_name": "BAPTIST RD OPP PANAMA LODGE"}},{"geometry": {"type": "Point", "coordinates": [-80.07382000009612, 40.35918660021988]}, "type": "Feature", "id": 122, "properties": {"stop_lat": 40.359187, "zone_id": "2", "stop_lon": -80.07382, "PATRout09": "|36A", "stop_id": "X12720", "stop_name": "PAINTERS RUN RD OPP MCMILLAN RD FS"}},{"geometry": {"type": "Point", "coordinates": [-79.99072399963417, 40.36084310027909]}, "type": "Feature", "id": 123, "properties": {"stop_lat": 40.360843, "zone_id": "1", "stop_lon": -79.990724, "PATRout09": "|46A|46D|51C|BR", "stop_id": "S08170", "stop_name": "BROWNSVILLE RD AT BAPTIST"}},{"geometry": {"type": "Point", "coordinates": [-79.87072900040586, 40.36313209989506]}, "type": "Feature", "id": 124, "properties": {"stop_lat": 40.363132, "zone_id": "2", "stop_lon": -79.870729, "PATRout09": "|53H|55B", "stop_id": "S50310", "stop_name": "WORTON BLVD AT CONLIN"}},{"geometry": {"type": "Point", "coordinates": [-80.10396499957601, 40.35861099999987]}, "type": "Feature", "id": 125, "properties": {"stop_lat": 40.358611, "zone_id": "2", "stop_lon": -80.103965, "PATRout09": "|36A|41B|44U", "stop_id": "X02350", "stop_name": "BOWER HILL RD AT #736"}},{"geometry": {"type": "Point", "coordinates": [-80.01534899957267, 40.36038820032232]}, "type": "Feature", "id": 126, "properties": {"stop_lat": 40.360388, "zone_id": "1", "stop_lon": -80.015349, "PATRout09": "|46B", "stop_id": "S21780", "stop_name": "HAMILTON RD AT MIDDLEBORO"}},{"geometry": {"type": "Point", "coordinates": [-79.98233999975852, 40.36111690034173]}, "type": "Feature", "id": 127, "properties": {"stop_lat": 40.361117, "zone_id": "1", "stop_lon": -79.98234, "PATRout09": "|46A|46G|51C|E", "stop_id": "S24160", "stop_name": "HWY RT 51 AT STILLEY"}},{"geometry": {"type": "Point", "coordinates": [-79.93182799975415, 40.3620831003678]}, "type": "Feature", "id": 128, "properties": {"stop_lat": 40.362083, "zone_id": "2", "stop_lon": -79.931828, "PATRout09": "|46A|46D|51C", "stop_id": "TP7067", "stop_name": "NOBLE RD AT LEBANON"}},{"geometry": {"type": "Point", "coordinates": [-79.93192800028245, 40.362093099772395]}, "type": "Feature", "id": 129, "properties": {"stop_lat": 40.362093, "zone_id": "2", "stop_lon": -79.931928, "PATRout09": "|46F|51C", "stop_id": "S35881", "stop_name": "NOBLE RD AT LEBANON"}},{"geometry": {"type": "Point", "coordinates": [-80.10393599972082, 40.358725000092235]}, "type": "Feature", "id": 130, "properties": {"stop_lat": 40.358725, "zone_id": "2", "stop_lon": -80.103936, "PATRout09": "|36A|41B|44U", "stop_id": "X02340", "stop_name": "BOWER HILL RD AT #737"}},{"geometry": {"type": "Point", "coordinates": [-79.96254999993165, 40.361533000260444]}, "type": "Feature", "id": 131, "properties": {"stop_lat": 40.361533, "zone_id": "1", "stop_lon": -79.96255, "PATRout09": "|46A|46F|51B", "stop_id": "S39740", "stop_name": "PROSPECT RD AT #1544"}},{"geometry": {"type": "Point", "coordinates": [-79.96257099980322, 40.36154840007267]}, "type": "Feature", "id": 132, "properties": {"stop_lat": 40.361548, "zone_id": "1", "stop_lon": -79.962571, "PATRout09": "|35A|46A|46F", "stop_id": "S39750", "stop_name": "PROSPECT RD AT #1544"}},{"geometry": {"type": "Point", "coordinates": [-79.98215700034986, 40.361180999861894]}, "type": "Feature", "id": 133, "properties": {"stop_lat": 40.361181, "zone_id": "1", "stop_lon": -79.982157, "PATRout09": "|35A|46A|46F|46H|51C", "stop_id": "S44680", "stop_name": "STILLEY RD AT HWY RT 51 FS"}},{"geometry": {"type": "Point", "coordinates": [-79.9939640002648, 40.36095560034624]}, "type": "Feature", "id": 134, "properties": {"stop_lat": 40.360956, "zone_id": "1", "stop_lon": -79.993964, "PATRout09": "|35A|46B", "stop_id": "S05300", "stop_name": "BAPTIST RD AT OLD BOSTON"}},{"geometry": {"type": "Point", "coordinates": [-80.11224899996871, 40.35861899964454]}, "type": "Feature", "id": 135, "properties": {"stop_lat": 40.358619, "zone_id": "2", "stop_lon": -80.112249, "PATRout09": "|29E|31D|31E|33D|33E", "stop_id": "W24410", "stop_name": "WASHINGTON AVE AT STATION"}},{"geometry": {"type": "Point", "coordinates": [-80.10988700052316, 40.35868699969937]}, "type": "Feature", "id": 136, "properties": {"stop_lat": 40.358687, "zone_id": "2", "stop_lon": -80.109887, "PATRout09": "|36A|41B", "stop_id": "X15120", "stop_name": "RAILROAD ST AT BALDWIN"}},{"geometry": {"type": "Point", "coordinates": [-79.98202799951831, 40.36123820000605]}, "type": "Feature", "id": 137, "properties": {"stop_lat": 40.361238, "zone_id": "1", "stop_lon": -79.982028, "PATRout09": "|35A|46A|46F|46H|51C", "stop_id": "S44670", "stop_name": "STILLEY RD AT HWY RT 51"}},{"geometry": {"type": "Point", "coordinates": [-79.99240900019187, 40.3610465000888]}, "type": "Feature", "id": 138, "properties": {"stop_lat": 40.361047, "zone_id": "1", "stop_lon": -79.992409, "PATRout09": "|35A|46B", "stop_id": "S05290", "stop_name": "BAPTIST RD AT NORWIN"}},{"geometry": {"type": "Point", "coordinates": [-79.93216100024631, 40.36223750043271]}, "type": "Feature", "id": 139, "properties": {"stop_lat": 40.362237, "zone_id": "1A", "stop_lon": -79.932161, "PATRout09": "|51E", "stop_id": "S28850", "stop_name": "LEBANON RD OPP NOBLE (W MIFFLIN GARAGE)"}},{"geometry": {"type": "Point", "coordinates": [-79.92943500040244, 40.36237800027393]}, "type": "Feature", "id": 140, "properties": {"stop_lat": 40.362378, "zone_id": "1A", "stop_lon": -79.929435, "PATRout09": "|51C", "stop_id": "S34020", "stop_name": "MIFFLIN GARAGE AT PARKING AREA"}},{"geometry": {"type": "Point", "coordinates": [-79.98278999996622, 40.36140640044294]}, "type": "Feature", "id": 141, "properties": {"stop_lat": 40.361406, "zone_id": "1", "stop_lon": -79.98279, "PATRout09": "|46G|46H|51C|53C|BR|E", "stop_id": "S24590", "stop_name": "HWY RT 51 OPP STILLEY"}},{"geometry": {"type": "Point", "coordinates": [-79.96322699962528, 40.361791999654535]}, "type": "Feature", "id": 142, "properties": {"stop_lat": 40.361792, "zone_id": "1", "stop_lon": -79.963227, "PATRout09": "|35A|46F|51B", "stop_id": "S39751", "stop_name": "PROSPECT RD OPP #1544"}},{"geometry": {"type": "Point", "coordinates": [-79.96728799975196, 40.361749300225945]}, "type": "Feature", "id": 143, "properties": {"stop_lat": 40.361749, "zone_id": "1", "stop_lon": -79.967288, "PATRout09": "|46A", "stop_id": "S16980", "stop_name": "E WILLOCK RD AT #4851"}},{"geometry": {"type": "Point", "coordinates": [-79.92953499991907, 40.36247799989606]}, "type": "Feature", "id": 144, "properties": {"stop_lat": 40.362478, "zone_id": "2", "stop_lon": -79.929535, "PATRout09": "|51C", "stop_id": "TP2210", "stop_name": "WEST MIFFLIN GARAGE AT PARKING AREA - NO STOP"}},{"geometry": {"type": "Point", "coordinates": [-79.99105799945612, 40.36131650031689]}, "type": "Feature", "id": 145, "properties": {"stop_lat": 40.361317, "zone_id": "1", "stop_lon": -79.991058, "PATRout09": "|46B", "stop_id": "S39910", "stop_name": "PROVOST RD AT BAPTIST FS"}},{"geometry": {"type": "Point", "coordinates": [-80.10875500057502, 40.35898400033204]}, "type": "Feature", "id": 146, "properties": {"stop_lat": 40.358984, "zone_id": "2", "stop_lon": -80.108755, "PATRout09": "|36A|41B|44U", "stop_id": "X70015", "stop_name": "BOWER HILL RD AT LIBERTY"}},{"geometry": {"type": "Point", "coordinates": [-79.96593300033238, 40.36185179975638]}, "type": "Feature", "id": 147, "properties": {"stop_lat": 40.361852, "zone_id": "1", "stop_lon": -79.965933, "PATRout09": "|46A|46F", "stop_id": "S17540", "stop_name": "ELMWOOD DR AT YOUNG"}},{"geometry": {"type": "Point", "coordinates": [-79.95897400028562, 40.361987300412565]}, "type": "Feature", "id": 148, "properties": {"stop_lat": 40.361987, "zone_id": "1", "stop_lon": -79.958974, "PATRout09": "|46A|46F", "stop_id": "S22310", "stop_name": "HOLLYROOD DR AT #1647"}},{"geometry": {"type": "Point", "coordinates": [-79.85899500041484, 40.3639041002594]}, "type": "Feature", "id": 149, "properties": {"stop_lat": 40.363904, "zone_id": "2", "stop_lon": -79.858995, "PATRout09": "|53H|55B|59", "stop_id": "S33730", "stop_name": "MELLON ST OPP VERMONT"}},{"geometry": {"type": "Point", "coordinates": [-79.99147299967949, 40.361416799824696]}, "type": "Feature", "id": 150, "properties": {"stop_lat": 40.361417, "zone_id": "1", "stop_lon": -79.991473, "PATRout09": "|46B", "stop_id": "S39900", "stop_name": "PROVOST RD AT BAPTIST"}},{"geometry": {"type": "Point", "coordinates": [-80.01433100002014, 40.360987399560464]}, "type": "Feature", "id": 151, "properties": {"stop_lat": 40.360987, "zone_id": "1", "stop_lon": -80.014331, "PATRout09": "|46B", "stop_id": "S33470", "stop_name": "MCROBERTS RD AT HAMILTON FS"}},{"geometry": {"type": "Point", "coordinates": [-79.99287999977918, 40.36142560031303]}, "type": "Feature", "id": 152, "properties": {"stop_lat": 40.361426, "zone_id": "1", "stop_lon": -79.99288, "PATRout09": "|35A|46B", "stop_id": "S05310", "stop_name": "BAPTIST RD AT PANAMA LODGE"}},{"geometry": {"type": "Point", "coordinates": [-79.96617699978148, 40.3619565002493]}, "type": "Feature", "id": 153, "properties": {"stop_lat": 40.361956, "zone_id": "1", "stop_lon": -79.966177, "PATRout09": "|46A|46F", "stop_id": "S17570", "stop_name": "ELMWOOD DR OPP YOUNG"}},{"geometry": {"type": "Point", "coordinates": [-79.85910199983144, 40.36396449973663]}, "type": "Feature", "id": 154, "properties": {"stop_lat": 40.363965, "zone_id": "2", "stop_lon": -79.859102, "PATRout09": "|53H|55B|59", "stop_id": "S33690", "stop_name": "MELLON ST AT VERMONT"}},{"geometry": {"type": "Point", "coordinates": [-80.07677699958411, 40.359786199728454]}, "type": "Feature", "id": 155, "properties": {"stop_lat": 40.359786, "zone_id": "2", "stop_lon": -80.076777, "PATRout09": "|36A", "stop_id": "X12750", "stop_name": "PAINTERS RUN RD AT ZAKS MARKET"}},{"geometry": {"type": "Point", "coordinates": [-80.07666700009892, 40.35978870012898]}, "type": "Feature", "id": 156, "properties": {"stop_lat": 40.359789, "zone_id": "2", "stop_lon": -80.076667, "PATRout09": "|36A", "stop_id": "X12770", "stop_name": "PAINTERS RUN RD OPP ZAKS MARKET"}},{"geometry": {"type": "Point", "coordinates": [-80.01428100010945, 40.36107839969058]}, "type": "Feature", "id": 157, "properties": {"stop_lat": 40.361078, "zone_id": "1", "stop_lon": -80.014281, "PATRout09": "|46B", "stop_id": "S33460", "stop_name": "MCROBERTS RD AT HAMILTON"}},{"geometry": {"type": "Point", "coordinates": [-79.993625000453, 40.36167209969389]}, "type": "Feature", "id": 158, "properties": {"stop_lat": 40.361672, "zone_id": "1", "stop_lon": -79.993625, "PATRout09": "|46B", "stop_id": "S05440", "stop_name": "BAPTIST RD OPP NORWIN"}},{"geometry": {"type": "Point", "coordinates": [-80.02931500019254, 40.360991000195774]}, "type": "Feature", "id": 159, "properties": {"stop_lat": 40.360991, "zone_id": "1", "stop_lon": -80.029315, "PATRout09": "|BLLB|BLSV|BRWN|RED", "stop_id": "X14495", "stop_name": "PRIVATE R/WAY AT ST ANNE'S"}},{"geometry": {"type": "Point", "coordinates": [-80.02916600034762, 40.361020000154205]}, "type": "Feature", "id": 160, "properties": {"stop_lat": 40.36102, "zone_id": "1", "stop_lon": -80.029166, "PATRout09": "|BLLB|BLSV|BRWN|RED", "stop_id": "X14490", "stop_name": "PRIVATE R/WAY AT ST ANNE'S"}},{"geometry": {"type": "Point", "coordinates": [-79.97856499994738, 40.362198399792526]}, "type": "Feature", "id": 161, "properties": {"stop_lat": 40.362198, "zone_id": "1", "stop_lon": -79.978565, "PATRout09": "|35A|46A|46F|51C", "stop_id": "S39790", "stop_name": "PROSPECT RD AT WAINWRIGHT"}},{"geometry": {"type": "Point", "coordinates": [-79.86987600004335, 40.36432410035511]}, "type": "Feature", "id": 162, "properties": {"stop_lat": 40.364324, "zone_id": "2", "stop_lon": -79.869876, "PATRout09": "|53H|55B", "stop_id": "S23070", "stop_name": "HOMEVILLE RD AT WORTON"}},{"geometry": {"type": "Point", "coordinates": [-79.8697439995859, 40.36433669968294]}, "type": "Feature", "id": 163, "properties": {"stop_lat": 40.364337, "zone_id": "2", "stop_lon": -79.869744, "PATRout09": "|53H|55B", "stop_id": "S50320", "stop_name": "WORTON BLVD AT HOMESTEAD-DUQUESNE"}},{"geometry": {"type": "Point", "coordinates": [-80.10177399959808, 40.35985299988405]}, "type": "Feature", "id": 164, "properties": {"stop_lat": 40.359853, "zone_id": "2", "stop_lon": -80.101774, "PATRout09": "|36A|41B|44U", "stop_id": "X02360", "stop_name": "BOWER HILL RD AT #802"}},{"geometry": {"type": "Point", "coordinates": [-79.96081400029718, 40.36265340041823]}, "type": "Feature", "id": 165, "properties": {"stop_lat": 40.362653, "zone_id": "1", "stop_lon": -79.960814, "PATRout09": "|46A|46F", "stop_id": "S22350", "stop_name": "HOLLYROOD DR AT TRETTER"}},{"geometry": {"type": "Point", "coordinates": [-80.10186300021107, 40.359894999804176]}, "type": "Feature", "id": 166, "properties": {"stop_lat": 40.359895, "zone_id": "2", "stop_lon": -80.101863, "PATRout09": "|36A|41B|44U", "stop_id": "X70016", "stop_name": "BOWER HILL RD AT #797"}},{"geometry": {"type": "Point", "coordinates": [-79.97822900026772, 40.36235360039362]}, "type": "Feature", "id": 167, "properties": {"stop_lat": 40.362354, "zone_id": "1", "stop_lon": -79.978229, "PATRout09": "|35A|46A|46F|51C", "stop_id": "S39890", "stop_name": "PROSPECT RD OPP WAINWRIGHT"}},{"geometry": {"type": "Point", "coordinates": [-79.9626029997328, 40.362685500039674]}, "type": "Feature", "id": 168, "properties": {"stop_lat": 40.362685, "zone_id": "1", "stop_lon": -79.962603, "PATRout09": "|46A|46F", "stop_id": "S22370", "stop_name": "HOLLYROOD DR OPP ELDERSLEE"}},{"geometry": {"type": "Point", "coordinates": [-79.85911999958104, 40.364741600056256]}, "type": "Feature", "id": 169, "properties": {"stop_lat": 40.364742, "zone_id": "2", "stop_lon": -79.85912, "PATRout09": "|53H|55B|59", "stop_id": "S33720", "stop_name": "MELLON ST OPP MAINE"}},{"geometry": {"type": "Point", "coordinates": [-80.01291500038342, 40.36189090010695]}, "type": "Feature", "id": 170, "properties": {"stop_lat": 40.361891, "zone_id": "1", "stop_lon": -80.012915, "PATRout09": "|46B", "stop_id": "S33570", "stop_name": "MCROBERTS RD OPP CASTLE"}},{"geometry": {"type": "Point", "coordinates": [-79.96731200019705, 40.36277900037113]}, "type": "Feature", "id": 171, "properties": {"stop_lat": 40.362779, "zone_id": "1", "stop_lon": -79.967312, "PATRout09": "|51B", "stop_id": "S39700", "stop_name": "PROSPECT RD AT ELMWOOD"}},{"geometry": {"type": "Point", "coordinates": [-79.85923499958247, 40.36483070043433]}, "type": "Feature", "id": 172, "properties": {"stop_lat": 40.364831, "zone_id": "2", "stop_lon": -79.859235, "PATRout09": "|53H|55B|59", "stop_id": "S33660", "stop_name": "MELLON ST AT MAINE"}},{"geometry": {"type": "Point", "coordinates": [-79.96356600053468, 40.36289910038708]}, "type": "Feature", "id": 173, "properties": {"stop_lat": 40.362899, "zone_id": "1", "stop_lon": -79.963566, "PATRout09": "|46A|46F", "stop_id": "S22300", "stop_name": "HOLLYROOD DR AT PROSPECT"}},{"geometry": {"type": "Point", "coordinates": [-80.01140699975674, 40.36199320002281]}, "type": "Feature", "id": 174, "properties": {"stop_lat": 40.361993, "zone_id": "1", "stop_lon": -80.011407, "PATRout09": "|46B", "stop_id": "S33450", "stop_name": "MCROBERTS RD AT GROVE"}},{"geometry": {"type": "Point", "coordinates": [-79.9875990005562, 40.36247040023301]}, "type": "Feature", "id": 175, "properties": {"stop_lat": 40.36247, "zone_id": "1", "stop_lon": -79.987599, "PATRout09": "|35A|46A|46D|51C|BR", "stop_id": "S09660", "stop_name": "BROWNSVILLE RD OPP #4350"}},{"geometry": {"type": "Point", "coordinates": [-80.01262299955992, 40.36200690038459]}, "type": "Feature", "id": 176, "properties": {"stop_lat": 40.362007, "zone_id": "1", "stop_lon": -80.012623, "PATRout09": "|46B", "stop_id": "S33430", "stop_name": "MCROBERTS RD AT CASTLE"}},{"geometry": {"type": "Point", "coordinates": [-80.0111210001129, 40.36206719989979]}, "type": "Feature", "id": 177, "properties": {"stop_lat": 40.362067, "zone_id": "1", "stop_lon": -80.011121, "PATRout09": "|46B", "stop_id": "S33440", "stop_name": "MCROBERTS RD AT GROVE"}},{"geometry": {"type": "Point", "coordinates": [-79.97060900009575, 40.36285850039196]}, "type": "Feature", "id": 178, "properties": {"stop_lat": 40.362859, "zone_id": "1", "stop_lon": -79.970609, "PATRout09": "|35A|46A|46F|51C", "stop_id": "S39840", "stop_name": "PROSPECT RD OPP COULTER"}},{"geometry": {"type": "Point", "coordinates": [-79.96663399971771, 40.36293850001266]}, "type": "Feature", "id": 179, "properties": {"stop_lat": 40.362938, "zone_id": "1", "stop_lon": -79.966634, "PATRout09": "|46A|46F", "stop_id": "S17400", "stop_name": "ELMWOOD DR AT PROSPECT FS"}},{"geometry": {"type": "Point", "coordinates": [-79.98748100006742, 40.362590300446755]}, "type": "Feature", "id": 180, "properties": {"stop_lat": 40.36259, "zone_id": "1", "stop_lon": -79.987481, "PATRout09": "|46A|BR", "stop_id": "S09070", "stop_name": "BROWNSVILLE RD AT #4350"}},{"geometry": {"type": "Point", "coordinates": [-79.9769550005634, 40.36280919999804]}, "type": "Feature", "id": 181, "properties": {"stop_lat": 40.362809, "zone_id": "1", "stop_lon": -79.976955, "PATRout09": "|35A|46A|46F|51C", "stop_id": "S39870", "stop_name": "PROSPECT RD OPP #1134"}},{"geometry": {"type": "Point", "coordinates": [-79.9767970004811, 40.36282100038854]}, "type": "Feature", "id": 182, "properties": {"stop_lat": 40.362821, "zone_id": "1", "stop_lon": -79.976797, "PATRout09": "|35A|46A|46F|51C", "stop_id": "S39730", "stop_name": "PROSPECT RD AT #1134"}},{"geometry": {"type": "Point", "coordinates": [-79.97117000003948, 40.3629632003314]}, "type": "Feature", "id": 183, "properties": {"stop_lat": 40.362963, "zone_id": "1", "stop_lon": -79.97117, "PATRout09": "|35A|46A|46F|51C", "stop_id": "S39670", "stop_name": "PROSPECT RD AT COULTER"}},{"geometry": {"type": "Point", "coordinates": [-80.11145299989451, 40.3601877998437]}, "type": "Feature", "id": 184, "properties": {"stop_lat": 40.360188, "zone_id": "2", "stop_lon": -80.111453, "PATRout09": "|29E|31D|31E|33D|33E|36A", "stop_id": "W24540", "stop_name": "WASHINGTON AVE OPP MURRAY"}},{"geometry": {"type": "Point", "coordinates": [-79.968211000194, 40.36306400022484]}, "type": "Feature", "id": 185, "properties": {"stop_lat": 40.363064, "zone_id": "1", "stop_lon": -79.968211, "PATRout09": "|46F|51B", "stop_id": "S39760", "stop_name": "PROSPECT RD AT RADFORD"}},{"geometry": {"type": "Point", "coordinates": [-79.96654000039265, 40.36310010007503]}, "type": "Feature", "id": 186, "properties": {"stop_lat": 40.3631, "zone_id": "1", "stop_lon": -79.96654, "PATRout09": "|46A|46F", "stop_id": "S17390", "stop_name": "ELMWOOD DR AT PROSPECT"}},{"geometry": {"type": "Point", "coordinates": [-80.00037299992196, 40.36245300003826]}, "type": "Feature", "id": 187, "properties": {"stop_lat": 40.362453, "zone_id": "1", "stop_lon": -80.000373, "PATRout09": "|46B", "stop_id": "S48590", "stop_name": "WEYMAN RD OPP SOUTH PASSAGE"}},{"geometry": {"type": "Point", "coordinates": [-79.96405400044098, 40.36316839964709]}, "type": "Feature", "id": 188, "properties": {"stop_lat": 40.363168, "zone_id": "1", "stop_lon": -79.964054, "PATRout09": "|35A|46A|46F", "stop_id": "S32040", "stop_name": "MAPLE DR AT PROSPECT"}},{"geometry": {"type": "Point", "coordinates": [-80.11152600005003, 40.36027370007453]}, "type": "Feature", "id": 189, "properties": {"stop_lat": 40.360274, "zone_id": "2", "stop_lon": -80.111526, "PATRout09": "|29E|31D|31E|33D|33E", "stop_id": "W24310", "stop_name": "WASHINGTON AVE AT MURRAY"}},{"geometry": {"type": "Point", "coordinates": [-80.0005069999659, 40.36256779965391]}, "type": "Feature", "id": 190, "properties": {"stop_lat": 40.362568, "zone_id": "1", "stop_lon": -80.000507, "PATRout09": "|46B", "stop_id": "S48585", "stop_name": "WEYMAN RD AT SOUTH PASSAGE"}},{"geometry": {"type": "Point", "coordinates": [-80.06354799989846, 40.361360000017115]}, "type": "Feature", "id": 191, "properties": {"stop_lat": 40.36136, "zone_id": "2", "stop_lon": -80.063548, "PATRout09": "|36A", "stop_id": "X06810", "stop_name": "GILKESON RD OPP CEDAR FS"}},{"geometry": {"type": "Point", "coordinates": [-79.98495800043034, 40.362915000312185]}, "type": "Feature", "id": 192, "properties": {"stop_lat": 40.362915, "zone_id": "1", "stop_lon": -79.984958, "PATRout09": "|35A|46A|46D|BR", "stop_id": "S70038", "stop_name": "BROWNSVILLE RD OPP OLD CLAIRTON"}},{"geometry": {"type": "Point", "coordinates": [-79.96826100026826, 40.36335950004744]}, "type": "Feature", "id": 193, "properties": {"stop_lat": 40.36336, "zone_id": "1", "stop_lon": -79.968261, "PATRout09": "|35A|46A|46F|51C", "stop_id": "S39710", "stop_name": "PROSPECT RD AT E WILLOCK"}},{"geometry": {"type": "Point", "coordinates": [-79.98379100049583, 40.36311080003427]}, "type": "Feature", "id": 194, "properties": {"stop_lat": 40.363111, "zone_id": "1", "stop_lon": -79.983791, "PATRout09": "|46A|46G|51C|53C|BR", "stop_id": "S23580", "stop_name": "HWY RT 51 AT BROWNSVILLE FS"}},{"geometry": {"type": "Point", "coordinates": [-79.99216900016414, 40.36299370034139]}, "type": "Feature", "id": 195, "properties": {"stop_lat": 40.362994, "zone_id": "1", "stop_lon": -79.992169, "PATRout09": "|46B|46D", "stop_id": "S40010", "stop_name": "PROVOST RD AT MULBERRY"}},{"geometry": {"type": "Point", "coordinates": [-80.06365799989936, 40.361617999820595]}, "type": "Feature", "id": 196, "properties": {"stop_lat": 40.361618, "zone_id": "1", "stop_lon": -80.063658, "PATRout09": "|36A", "stop_id": "X06660", "stop_name": "GILKESON RD AT CEDAR"}},{"geometry": {"type": "Point", "coordinates": [-79.85922699976864, 40.3655350001791]}, "type": "Feature", "id": 197, "properties": {"stop_lat": 40.365535, "zone_id": "2", "stop_lon": -79.859227, "PATRout09": "|53H|55B|59", "stop_id": "S33680", "stop_name": "MELLON ST AT TEXAS"}},{"geometry": {"type": "Point", "coordinates": [-79.90813699944475, 40.36464209973679]}, "type": "Feature", "id": 198, "properties": {"stop_lat": 40.364642, "zone_id": "1A", "stop_lon": -79.908137, "PATRout09": "|55M|56C", "stop_id": "S34190", "stop_name": "MIFFLIN RD AT NAUGLE"}},{"geometry": {"type": "Point", "coordinates": [-79.99227199986987, 40.36305319956971]}, "type": "Feature", "id": 199, "properties": {"stop_lat": 40.363053, "zone_id": "1", "stop_lon": -79.992272, "PATRout09": "|46B", "stop_id": "S39990", "stop_name": "PROVOST RD AT LAWNVIEW"}},{"geometry": {"type": "Point", "coordinates": [-79.98467600045224, 40.3632088000547]}, "type": "Feature", "id": 200, "properties": {"stop_lat": 40.363209, "zone_id": "1", "stop_lon": -79.984676, "PATRout09": "|35A|46A|46D|51C", "stop_id": "S08650", "stop_name": "BROWNSVILLE RD AT OLD CLAIRTON"}},{"geometry": {"type": "Point", "coordinates": [-80.08101300000287, 40.36132699971207]}, "type": "Feature", "id": 201, "properties": {"stop_lat": 40.361327, "zone_id": "2", "stop_lon": -80.081013, "PATRout09": "|36A", "stop_id": "X12700", "stop_name": "PAINTERS RUN RD OPP ESSEN HILL"}},{"geometry": {"type": "Point", "coordinates": [-79.87054099967438, 40.3653919000944]}, "type": "Feature", "id": 202, "properties": {"stop_lat": 40.365392, "zone_id": "2", "stop_lon": -79.870541, "PATRout09": "|53H|55B", "stop_id": "S23020", "stop_name": "HOMEVILLE RD AT DUQUESNE VLG ENT #2"}},{"geometry": {"type": "Point", "coordinates": [-79.87136399956398, 40.36538019957437]}, "type": "Feature", "id": 203, "properties": {"stop_lat": 40.36538, "zone_id": "2", "stop_lon": -79.871364, "PATRout09": "|55B", "stop_id": "S14850", "stop_name": "DUQUESNE VILLAGE AT WHITLOCK AUTO"}},{"geometry": {"type": "Point", "coordinates": [-79.87293999979472, 40.36538089969456]}, "type": "Feature", "id": 204, "properties": {"stop_lat": 40.365381, "zone_id": "2", "stop_lon": -79.87294, "PATRout09": "|55B", "stop_id": "S14840", "stop_name": "DUQUESNE VILLAGE AT FOODLAND"}},{"geometry": {"type": "Point", "coordinates": [-79.85919400058445, 40.365724599884665]}, "type": "Feature", "id": 205, "properties": {"stop_lat": 40.365725, "zone_id": "2", "stop_lon": -79.859194, "PATRout09": "|53H|55B", "stop_id": "S45470", "stop_name": "TEXAS AVE AT MELLON"}},{"geometry": {"type": "Point", "coordinates": [-79.90839800016481, 40.36483669958509]}, "type": "Feature", "id": 206, "properties": {"stop_lat": 40.364837, "zone_id": "1A", "stop_lon": -79.908398, "PATRout09": "|55M|56C", "stop_id": "S34360", "stop_name": "MIFFLIN RD OPP NAUGLE"}},{"geometry": {"type": "Point", "coordinates": [-79.8704210003494, 40.365558100295395]}, "type": "Feature", "id": 207, "properties": {"stop_lat": 40.365558, "zone_id": "2", "stop_lon": -79.870421, "PATRout09": "|53H", "stop_id": "S23110", "stop_name": "HOMEVILLE RD OPP DUQUESNE VILLAGE"}},{"geometry": {"type": "Point", "coordinates": [-80.08127699952783, 40.361500999759166]}, "type": "Feature", "id": 208, "properties": {"stop_lat": 40.361501, "zone_id": "2", "stop_lon": -80.081277, "PATRout09": "|36A", "stop_id": "X12690", "stop_name": "PAINTERS RUN RD AT ESSEN HILL"}},{"geometry": {"type": "Point", "coordinates": [-80.10021299989485, 40.361121999753045]}, "type": "Feature", "id": 209, "properties": {"stop_lat": 40.361122, "zone_id": "2", "stop_lon": -80.100213, "PATRout09": "|36A|41B|44U", "stop_id": "X02090", "stop_name": "BOWER HILL RD AT COOK SCHOOL"}},{"geometry": {"type": "Point", "coordinates": [-79.97505800004566, 40.3636120003335]}, "type": "Feature", "id": 210, "properties": {"stop_lat": 40.363612, "zone_id": "1", "stop_lon": -79.975058, "PATRout09": "|35A|46A|46F|51C", "stop_id": "S39720", "stop_name": "PROSPECT RD AT GIESE"}},{"geometry": {"type": "Point", "coordinates": [-80.10024600029631, 40.3611987004119]}, "type": "Feature", "id": 211, "properties": {"stop_lat": 40.361199, "zone_id": "2", "stop_lon": -80.100246, "PATRout09": "|36A|41B|44U", "stop_id": "X02540", "stop_name": "BOWER HILL RD OPP COOKS SCHOOL"}},{"geometry": {"type": "Point", "coordinates": [-79.98380700053589, 40.36356710037086]}, "type": "Feature", "id": 212, "properties": {"stop_lat": 40.363567, "zone_id": "1", "stop_lon": -79.983807, "PATRout09": "|46A|46F|46G|46H|51C|E", "stop_id": "S23570", "stop_name": "HWY RT 51 AT BROWNSVILLE"}},{"geometry": {"type": "Point", "coordinates": [-79.97486500007479, 40.36376879982127]}, "type": "Feature", "id": 213, "properties": {"stop_lat": 40.363769, "zone_id": "1", "stop_lon": -79.974865, "PATRout09": "|35A|46A|46F|51C", "stop_id": "S39860", "stop_name": "PROSPECT RD OPP GIESE"}},{"geometry": {"type": "Point", "coordinates": [-79.8577730004914, 40.36601220024798]}, "type": "Feature", "id": 214, "properties": {"stop_lat": 40.366012, "zone_id": "2", "stop_lon": -79.857773, "PATRout09": "|53H|55B|59", "stop_id": "S45480", "stop_name": "TEXAS AVE AT MELLON"}},{"geometry": {"type": "Point", "coordinates": [-79.9678990003077, 40.36394959961767]}, "type": "Feature", "id": 215, "properties": {"stop_lat": 40.36395, "zone_id": "1", "stop_lon": -79.967899, "PATRout09": "|35A|46A|46F|51C", "stop_id": "TP1610", "stop_name": "RADFORD RD AT E WILLOCK-NO STOP"}},{"geometry": {"type": "Point", "coordinates": [-80.08969799942459, 40.36156899991685]}, "type": "Feature", "id": 216, "properties": {"stop_lat": 40.361569, "zone_id": "2", "stop_lon": -80.089698, "PATRout09": "|36A|41B|44U", "stop_id": "X02030", "stop_name": "BOWER HILL RD AT BEDNER'S FARM STORE"}},{"geometry": {"type": "Point", "coordinates": [-80.08967899987397, 40.361635999618166]}, "type": "Feature", "id": 217, "properties": {"stop_lat": 40.361636, "zone_id": "2", "stop_lon": -80.089679, "PATRout09": "|36A|41B|44U", "stop_id": "X02500", "stop_name": "BOWER HILL RD OPP BEDNER'S FARM STORE"}},{"geometry": {"type": "Point", "coordinates": [-79.98414900054365, 40.36381399976905]}, "type": "Feature", "id": 218, "properties": {"stop_lat": 40.363814, "zone_id": "1", "stop_lon": -79.984149, "PATRout09": "|46A|46D|46F|46G|46H|E", "stop_id": "TP1640", "stop_name": "BROWNSVILLE RD AT HWY RT 51-NO STOP"}},{"geometry": {"type": "Point", "coordinates": [-79.85764400039284, 40.36619499961795]}, "type": "Feature", "id": 219, "properties": {"stop_lat": 40.366195, "zone_id": "2", "stop_lon": -79.857644, "PATRout09": "|53H|55B|59", "stop_id": "S27300", "stop_name": "KENNEDY AVE AT MIFFLIN"}},{"geometry": {"type": "Point", "coordinates": [-80.09153300001836, 40.361687999995084]}, "type": "Feature", "id": 220, "properties": {"stop_lat": 40.361688, "zone_id": "2", "stop_lon": -80.091533, "PATRout09": "|36A|41B|44U", "stop_id": "X02690", "stop_name": "BOWER HILL RD OPP UNIVERSAL CYCLOPS"}},{"geometry": {"type": "Point", "coordinates": [-79.97321599960769, 40.36404259995614]}, "type": "Feature", "id": 221, "properties": {"stop_lat": 40.364043, "zone_id": "1", "stop_lon": -79.973216, "PATRout09": "|35A|46A|46F|51C", "stop_id": "S39810", "stop_name": "PROSPECT RD OPP ABBOTT"}},{"geometry": {"type": "Point", "coordinates": [-79.9730440005295, 40.36406679967935]}, "type": "Feature", "id": 222, "properties": {"stop_lat": 40.364067, "zone_id": "1", "stop_lon": -79.973044, "PATRout09": "|35A|46A|46F|51C", "stop_id": "S39650", "stop_name": "PROSPECT RD AT ABBOTT"}},{"geometry": {"type": "Point", "coordinates": [-80.00972199962686, 40.363387900025955]}, "type": "Feature", "id": 223, "properties": {"stop_lat": 40.363388, "zone_id": "1", "stop_lon": -80.009722, "PATRout09": "|46B", "stop_id": "S33500", "stop_name": "MCROBERTS RD AT MAGNOLIA"}},{"geometry": {"type": "Point", "coordinates": [-79.96740899942375, 40.36427050029928]}, "type": "Feature", "id": 224, "properties": {"stop_lat": 40.364271, "zone_id": "1", "stop_lon": -79.967409, "PATRout09": "|35A|46A|46F|51B|51C", "stop_id": "S40130", "stop_name": "RADFORD RD OPP BEVAN"}},{"geometry": {"type": "Point", "coordinates": [-80.09234999972534, 40.361805000400366]}, "type": "Feature", "id": 225, "properties": {"stop_lat": 40.361805, "zone_id": "2", "stop_lon": -80.09235, "PATRout09": "|36A|41B|44U", "stop_id": "X02460", "stop_name": "BOWER HILL RD AT UNIVERSAL CYCLOPS"}},{"geometry": {"type": "Point", "coordinates": [-79.98437799955337, 40.36396199986647]}, "type": "Feature", "id": 226, "properties": {"stop_lat": 40.363962, "zone_id": "1", "stop_lon": -79.984378, "PATRout09": "|46A|46D|46F|46G|46H", "stop_id": "S23590", "stop_name": "HWY RT 51 AT BROWNSVILLE NS"}},{"geometry": {"type": "Point", "coordinates": [-79.85731099990969, 40.36638049980997]}, "type": "Feature", "id": 227, "properties": {"stop_lat": 40.36638, "zone_id": "2", "stop_lon": -79.857311, "PATRout09": "|53H|55B|59", "stop_id": "S27340", "stop_name": "KENNEDY AVE OPP DELL"}},{"geometry": {"type": "Point", "coordinates": [-79.99213699955457, 40.36384229992309]}, "type": "Feature", "id": 228, "properties": {"stop_lat": 40.363842, "zone_id": "1", "stop_lon": -79.992137, "PATRout09": "|46B|46D", "stop_id": "S39920", "stop_name": "PROVOST RD AT BARLIND"}},{"geometry": {"type": "Point", "coordinates": [-80.00981999976986, 40.36356009978806]}, "type": "Feature", "id": 229, "properties": {"stop_lat": 40.36356, "zone_id": "1", "stop_lon": -80.00982, "PATRout09": "|46B", "stop_id": "S33600", "stop_name": "MCROBERTS RD OPP MAGNOLIA"}},{"geometry": {"type": "Point", "coordinates": [-79.96727199949936, 40.364392999869736]}, "type": "Feature", "id": 230, "properties": {"stop_lat": 40.364393, "zone_id": "1", "stop_lon": -79.967272, "PATRout09": "|51B", "stop_id": "S40138", "stop_name": "RADFORD RD OPP PARKLINE"}},{"geometry": {"type": "Point", "coordinates": [-79.96464700010279, 40.364500500333314]}, "type": "Feature", "id": 231, "properties": {"stop_lat": 40.3645, "zone_id": "1", "stop_lon": -79.964647, "PATRout09": "|35A|46A|46F", "stop_id": "S32090", "stop_name": "MAPLE DR AT SKYLINE"}},{"geometry": {"type": "Point", "coordinates": [-79.85723500009084, 40.366524499717976]}, "type": "Feature", "id": 232, "properties": {"stop_lat": 40.366524, "zone_id": "2", "stop_lon": -79.857235, "PATRout09": "|53H|55B|59", "stop_id": "S27290", "stop_name": "KENNEDY AVE AT DELL"}},{"geometry": {"type": "Point", "coordinates": [-79.96732600025818, 40.36449000017231]}, "type": "Feature", "id": 233, "properties": {"stop_lat": 40.36449, "zone_id": "1", "stop_lon": -79.967326, "PATRout09": "|35A|46A|46F|51B|51C", "stop_id": "S40115", "stop_name": "RADFORD RD AT TERMINUS (OPP 7-11)"}},{"geometry": {"type": "Point", "coordinates": [-79.99222400022956, 40.36405619983272]}, "type": "Feature", "id": 234, "properties": {"stop_lat": 40.364056, "zone_id": "1", "stop_lon": -79.992224, "PATRout09": "|46B", "stop_id": "S39930", "stop_name": "PROVOST RD AT BARLIND"}},{"geometry": {"type": "Point", "coordinates": [-79.96470199941791, 40.364687899628414]}, "type": "Feature", "id": 235, "properties": {"stop_lat": 40.364688, "zone_id": "1", "stop_lon": -79.964702, "PATRout09": "|35A|46A|46F", "stop_id": "S42520", "stop_name": "SKYLINE DR AT MAPLE"}},{"geometry": {"type": "Point", "coordinates": [-80.0978730001733, 40.3620909996062]}, "type": "Feature", "id": 236, "properties": {"stop_lat": 40.362091, "zone_id": "2", "stop_lon": -80.097873, "PATRout09": "|36A|41B|44U", "stop_id": "X02410", "stop_name": "BOWER HILL RD AT SYLVA"}},{"geometry": {"type": "Point", "coordinates": [-79.96466099981124, 40.3647495002981]}, "type": "Feature", "id": 237, "properties": {"stop_lat": 40.36475, "zone_id": "1", "stop_lon": -79.964661, "PATRout09": "|46A|46F|51C", "stop_id": "S40135", "stop_name": "RADFORD RD OPP MAPLE"}},{"geometry": {"type": "Point", "coordinates": [-80.02849999990829, 40.36352200000886]}, "type": "Feature", "id": 238, "properties": {"stop_lat": 40.363522, "zone_id": "1", "stop_lon": -80.0285, "PATRout09": "|BLLB|BLSV|BRWN|RED", "stop_id": "X14255", "stop_name": "PRIVATE R/WAY AT MARTIN VILLA"}},{"geometry": {"type": "Point", "coordinates": [-80.09764000004559, 40.36221899982596]}, "type": "Feature", "id": 239, "properties": {"stop_lat": 40.362219, "zone_id": "2", "stop_lon": -80.09764, "PATRout09": "|36A|41B|44U", "stop_id": "X02440", "stop_name": "BOWER HILL RD AT UNION"}},{"geometry": {"type": "Point", "coordinates": [-80.02828900024134, 40.36363099983795]}, "type": "Feature", "id": 240, "properties": {"stop_lat": 40.363631, "zone_id": "1", "stop_lon": -80.028289, "PATRout09": "|BLLB|BLSV|BRWN|RED", "stop_id": "X14250", "stop_name": "PRIVATE R/WAY AT MARTIN VILLA"}},{"geometry": {"type": "Point", "coordinates": [-79.99970199946911, 40.364223699717314]}, "type": "Feature", "id": 241, "properties": {"stop_lat": 40.364224, "zone_id": "1", "stop_lon": -79.999702, "PATRout09": "|46B|BM", "stop_id": "S48560", "stop_name": "WEYMAN RD AT MAIDEN BRIDGE"}},{"geometry": {"type": "Point", "coordinates": [-79.98342000019336, 40.36454200007666]}, "type": "Feature", "id": 242, "properties": {"stop_lat": 40.364542, "zone_id": "1", "stop_lon": -79.98342, "PATRout09": "|46A|51C|53C|BR", "stop_id": "TP2310", "stop_name": "BROWNSVILLE RD AT DEWALT-NO STOP"}},{"geometry": {"type": "Point", "coordinates": [-79.98320300030014, 40.3646679003042]}, "type": "Feature", "id": 243, "properties": {"stop_lat": 40.364668, "zone_id": "1", "stop_lon": -79.983203, "PATRout09": "|46A|46D|51C|BR", "stop_id": "S08320", "stop_name": "BROWNSVILLE RD OPP DEWALT"}},{"geometry": {"type": "Point", "coordinates": [-79.8713709997627, 40.36680739962395]}, "type": "Feature", "id": 244, "properties": {"stop_lat": 40.366807, "zone_id": "2", "stop_lon": -79.871371, "PATRout09": "|53H|55B", "stop_id": "S23095", "stop_name": "HOMEVILLE RD OPP SHELL GAS STATION"}},{"geometry": {"type": "Point", "coordinates": [-80.06355699985393, 40.36312700005529]}, "type": "Feature", "id": 245, "properties": {"stop_lat": 40.363127, "zone_id": "1", "stop_lon": -80.063557, "PATRout09": "|36A", "stop_id": "X04332", "stop_name": "CEDAR BLVD OPP #1331"}},{"geometry": {"type": "Point", "coordinates": [-79.87160200038853, 40.36682440002734]}, "type": "Feature", "id": 246, "properties": {"stop_lat": 40.366824, "zone_id": "2", "stop_lon": -79.871602, "PATRout09": "|53H|55B", "stop_id": "S23025", "stop_name": "HOMEVILLE RD AT DUQUESNE VLG ENT #1"}},{"geometry": {"type": "Point", "coordinates": [-79.96678000011697, 40.365040899630564]}, "type": "Feature", "id": 247, "properties": {"stop_lat": 40.365041, "zone_id": "1", "stop_lon": -79.96678, "PATRout09": "|46A|46F|51C", "stop_id": "S40137", "stop_name": "RADFORD RD AT PARKLINE"}},{"geometry": {"type": "Point", "coordinates": [-80.08391500043312, 40.362829000255296]}, "type": "Feature", "id": 248, "properties": {"stop_lat": 40.362829, "zone_id": "2", "stop_lon": -80.083915, "PATRout09": "|36A", "stop_id": "X12760", "stop_name": "PAINTERS RUN RD OPP BEAUTY SALON"}},{"geometry": {"type": "Point", "coordinates": [-79.96752899995266, 40.365142999581295]}, "type": "Feature", "id": 249, "properties": {"stop_lat": 40.365143, "zone_id": "1", "stop_lon": -79.967529, "PATRout09": "|51B", "stop_id": "S40139", "stop_name": "RADFORD RD AT SKYLINE"}},{"geometry": {"type": "Point", "coordinates": [-79.9996290004947, 40.36452740016153]}, "type": "Feature", "id": 250, "properties": {"stop_lat": 40.364527, "zone_id": "1", "stop_lon": -79.999629, "PATRout09": "|46B|BM", "stop_id": "S48562", "stop_name": "WEYMAN RD AT HENNIG FS (MAIDEN BRIDGE)"}},{"geometry": {"type": "Point", "coordinates": [-79.96692699972405, 40.36518730037221]}, "type": "Feature", "id": 251, "properties": {"stop_lat": 40.365187, "zone_id": "1", "stop_lon": -79.966927, "PATRout09": "|35A|46A|46F|51C", "stop_id": "S38150", "stop_name": "PARKLINE DR AT RADFORD FS"}},{"geometry": {"type": "Point", "coordinates": [-80.0839149996416, 40.36294700009386]}, "type": "Feature", "id": 252, "properties": {"stop_lat": 40.362947, "zone_id": "2", "stop_lon": -80.083915, "PATRout09": "|36A", "stop_id": "X12705", "stop_name": "PAINTERS RUN RD AT BEAUTY SALON"}},{"geometry": {"type": "Point", "coordinates": [-79.99208399954857, 40.36479589956014]}, "type": "Feature", "id": 253, "properties": {"stop_lat": 40.364796, "zone_id": "1", "stop_lon": -79.992084, "PATRout09": "|46B|46D", "stop_id": "S39940", "stop_name": "PROVOST RD AT BRIGHTVIEW"}},{"geometry": {"type": "Point", "coordinates": [-80.00977200055884, 40.364477800434614]}, "type": "Feature", "id": 254, "properties": {"stop_lat": 40.364478, "zone_id": "1", "stop_lon": -80.009772, "PATRout09": "|46B", "stop_id": "S33490", "stop_name": "MCROBERTS RD AT HIGHLAND VILLA"}},{"geometry": {"type": "Point", "coordinates": [-79.85591000012637, 40.36743659982525]}, "type": "Feature", "id": 255, "properties": {"stop_lat": 40.367437, "zone_id": "2", "stop_lon": -79.85591, "PATRout09": "|53H|55B|59", "stop_id": "S27320", "stop_name": "KENNEDY AVE AT PETER"}},{"geometry": {"type": "Point", "coordinates": [-79.99219399966967, 40.364954500320984]}, "type": "Feature", "id": 256, "properties": {"stop_lat": 40.364955, "zone_id": "1", "stop_lon": -79.992194, "PATRout09": "|46B", "stop_id": "S39950", "stop_name": "PROVOST RD AT BRIGHTVIEW"}},{"geometry": {"type": "Point", "coordinates": [-80.00979099949927, 40.3646548999763]}, "type": "Feature", "id": 257, "properties": {"stop_lat": 40.364655, "zone_id": "1", "stop_lon": -80.009791, "PATRout09": "|46B", "stop_id": "S33590", "stop_name": "MCROBERTS RD OPP HIGHLAND VILLA"}},{"geometry": {"type": "Point", "coordinates": [-80.11075800055916, 40.36263950021625]}, "type": "Feature", "id": 258, "properties": {"stop_lat": 40.36264, "zone_id": "2", "stop_lon": -80.110758, "PATRout09": "|31D", "stop_id": "W20021", "stop_name": "PRESTLEY RD AT WASHINGTON PIKE"}},{"geometry": {"type": "Point", "coordinates": [-79.85583699986744, 40.36758930029514]}, "type": "Feature", "id": 259, "properties": {"stop_lat": 40.367589, "zone_id": "2", "stop_lon": -79.855837, "PATRout09": "|53H|55B|59", "stop_id": "S27310", "stop_name": "KENNEDY AVE AT PETER"}},{"geometry": {"type": "Point", "coordinates": [-79.94941000021993, 40.36587599960798]}, "type": "Feature", "id": 260, "properties": {"stop_lat": 40.365876, "zone_id": "1", "stop_lon": -79.94941, "PATRout09": "|51B", "stop_id": "S45190", "stop_name": "STREETS RUN RD OPP SCHUETTE"}},{"geometry": {"type": "Point", "coordinates": [-80.02210800023731, 40.364496600129215]}, "type": "Feature", "id": 261, "properties": {"stop_lat": 40.364497, "zone_id": "1", "stop_lon": -80.022108, "PATRout09": "|46B", "stop_id": "S29265", "stop_name": "LIBRARY RD AT CASTLE SHANNON BLVD"}},{"geometry": {"type": "Point", "coordinates": [-79.96753300039214, 40.36556559962092]}, "type": "Feature", "id": 262, "properties": {"stop_lat": 40.365566, "zone_id": "1", "stop_lon": -79.967533, "PATRout09": "|35A|46A|46F|51B", "stop_id": "S38240", "stop_name": "PARKLINE DR OPP SKYLINE"}},{"geometry": {"type": "Point", "coordinates": [-80.11048100018947, 40.36274110002759]}, "type": "Feature", "id": 263, "properties": {"stop_lat": 40.362741, "zone_id": "2", "stop_lon": -80.110481, "PATRout09": "|29E|31D|31E|33D|33E", "stop_id": "W24330", "stop_name": "WASHINGTON AVE AT PRESTLEY"}},{"geometry": {"type": "Point", "coordinates": [-79.9098500003456, 40.36669689988641]}, "type": "Feature", "id": 264, "properties": {"stop_lat": 40.366697, "zone_id": "1A", "stop_lon": -79.90985, "PATRout09": "|55M|56C", "stop_id": "S34160", "stop_name": "MIFFLIN RD AT MOHRBACH"}},{"geometry": {"type": "Point", "coordinates": [-79.96396399955103, 40.36571910015184]}, "type": "Feature", "id": 265, "properties": {"stop_lat": 40.365719, "zone_id": "1", "stop_lon": -79.963964, "PATRout09": "|35A|46A|46F", "stop_id": "S42565", "stop_name": "SKYLINE DR AT #1765"}},{"geometry": {"type": "Point", "coordinates": [-79.94948199973841, 40.36600999989113]}, "type": "Feature", "id": 266, "properties": {"stop_lat": 40.36601, "zone_id": "1", "stop_lon": -79.949482, "PATRout09": "|51B", "stop_id": "TP2120", "stop_name": "STREETS RUN RD AT SCHUETTE"}},{"geometry": {"type": "Point", "coordinates": [-80.11029599979823, 40.36286530036058]}, "type": "Feature", "id": 267, "properties": {"stop_lat": 40.362865, "zone_id": "2", "stop_lon": -80.110296, "PATRout09": "|29E|31D|31E|33D|33E|36A", "stop_id": "W24385", "stop_name": "WASHINGTON PIKE AT SCHULTE"}},{"geometry": {"type": "Point", "coordinates": [-79.90982599955124, 40.36687160017658]}, "type": "Feature", "id": 268, "properties": {"stop_lat": 40.366872, "zone_id": "1A", "stop_lon": -79.909826, "PATRout09": "|55M|56C", "stop_id": "S34170", "stop_name": "MIFFLIN RD AT MOHRBACH FS"}},{"geometry": {"type": "Point", "coordinates": [-79.98270300037885, 40.365492000207496]}, "type": "Feature", "id": 269, "properties": {"stop_lat": 40.365492, "stop_code": "BRENTTNCTR", "stop_lon": -79.982703, "PATRout09": "|46A|46D|51C|53C|BR", "stop_id": "S70011", "stop_name": "BROWNSVILLE RD AT GIANT EAGLE DRVWY", "zone_id": "1"}},{"geometry": {"type": "Point", "coordinates": [-79.96793700038292, 40.36589939995173]}, "type": "Feature", "id": 270, "properties": {"stop_lat": 40.365899, "zone_id": "1", "stop_lon": -79.967937, "PATRout09": "|35A|46A|46F|51C", "stop_id": "S38210", "stop_name": "PARKLINE DR OPP #1627"}},{"geometry": {"type": "Point", "coordinates": [-79.9821950002697, 40.36562899967445]}, "type": "Feature", "id": 271, "properties": {"stop_lat": 40.365629, "zone_id": "1", "stop_lon": -79.982195, "PATRout09": "|46D|51C", "stop_id": "S70063", "stop_name": "BROWNSVILLE RD AT #4133"}},{"geometry": {"type": "Point", "coordinates": [-80.01800099964015, 40.36510989969974]}, "type": "Feature", "id": 272, "properties": {"stop_lat": 40.36511, "zone_id": "1", "stop_lon": -80.018001, "PATRout09": "|46B", "stop_id": "S29277", "stop_name": "LIBRARY RD OPP SHANNON SQUARE SHOPPES"}},{"geometry": {"type": "Point", "coordinates": [-80.06264599958416, 40.36424199987731]}, "type": "Feature", "id": 273, "properties": {"stop_lat": 40.364242, "zone_id": "1", "stop_lon": -80.062646, "PATRout09": "|36A", "stop_id": "X04170", "stop_name": "CEDAR BLVD AT #1281"}},{"geometry": {"type": "Point", "coordinates": [-80.01807899974298, 40.365149800153866]}, "type": "Feature", "id": 274, "properties": {"stop_lat": 40.36515, "zone_id": "1", "stop_lon": -80.018079, "PATRout09": "|46B", "stop_id": "S29275", "stop_name": "LIBRARY RD AT SHANNON SQUARE SHOPPES"}},{"geometry": {"type": "Point", "coordinates": [-80.0627360001839, 40.36429299967887]}, "type": "Feature", "id": 275, "properties": {"stop_lat": 40.364293, "zone_id": "1", "stop_lon": -80.062736, "PATRout09": "|36A", "stop_id": "X04330", "stop_name": "CEDAR BLVD OPP #1289"}},{"geometry": {"type": "Point", "coordinates": [-80.11238500046053, 40.36328870004231]}, "type": "Feature", "id": 276, "properties": {"stop_lat": 40.363289, "zone_id": "2", "stop_lon": -80.112385, "PATRout09": "|31D", "stop_id": "W19970", "stop_name": "PRESTLEY RD AT CHESS"}},{"geometry": {"type": "Point", "coordinates": [-80.08707900053749, 40.363805999958196]}, "type": "Feature", "id": 277, "properties": {"stop_lat": 40.363806, "zone_id": "2", "stop_lon": -80.087079, "PATRout09": "|41B|44U", "stop_id": "X02610", "stop_name": "BOWER HILL RD OPP PAINTERS RUN FS"}},{"geometry": {"type": "Point", "coordinates": [-79.98181899987893, 40.36590899997633]}, "type": "Feature", "id": 278, "properties": {"stop_lat": 40.365909, "zone_id": "2", "stop_lon": -79.981819, "PATRout09": "|46D|51C", "stop_id": "S70021", "stop_name": "BROWNSVILLE RD AT MEADOWBROOK NS"}},{"geometry": {"type": "Point", "coordinates": [-80.08687799965325, 40.363918000018835]}, "type": "Feature", "id": 279, "properties": {"stop_lat": 40.363918, "zone_id": "2", "stop_lon": -80.086878, "PATRout09": "|36A", "stop_id": "X02250", "stop_name": "BOWER HILL RD AT PAINTERS RUN"}},{"geometry": {"type": "Point", "coordinates": [-79.96256699959231, 40.36660309995989]}, "type": "Feature", "id": 280, "properties": {"stop_lat": 40.366603, "zone_id": "1", "stop_lon": -79.962567, "PATRout09": "|35A|46A|46F", "stop_id": "S42540", "stop_name": "SKYLINE DR AT #1720"}},{"geometry": {"type": "Point", "coordinates": [-79.96251100026683, 40.366645900336444]}, "type": "Feature", "id": 281, "properties": {"stop_lat": 40.366646, "zone_id": "1", "stop_lon": -79.962511, "PATRout09": "|35A|46A|46F", "stop_id": "S42555", "stop_name": "SKYLINE DR OPP #1725"}},{"geometry": {"type": "Point", "coordinates": [-79.9928600005092, 40.366101199829004]}, "type": "Feature", "id": 282, "properties": {"stop_lat": 40.366101, "zone_id": "1", "stop_lon": -79.99286, "PATRout09": "|46B", "stop_id": "S40040", "stop_name": "PROVOST RD OPP CEMETERY ENT"}},{"geometry": {"type": "Point", "coordinates": [-80.0266340005097, 40.36545900015357]}, "type": "Feature", "id": 283, "properties": {"stop_lat": 40.365459, "zone_id": "1", "stop_lon": -80.026634, "PATRout09": "|RED", "stop_id": "X70026", "stop_name": "PRIVATE R/WAY AT OVERBROOK JCT OUTBOUND STATION"}},{"geometry": {"type": "Point", "coordinates": [-79.9526690005237, 40.366895499718254]}, "type": "Feature", "id": 284, "properties": {"stop_lat": 40.366895, "zone_id": "1", "stop_lon": -79.952669, "PATRout09": "|51B", "stop_id": "S41710", "stop_name": "SCHUETTE RD OPP #3964"}},{"geometry": {"type": "Point", "coordinates": [-79.85450800057633, 40.368728500365336]}, "type": "Feature", "id": 285, "properties": {"stop_lat": 40.368729, "zone_id": "2", "stop_lon": -79.854508, "PATRout09": "|53H|55B|59", "stop_id": "S27350", "stop_name": "KENNEDY AVE OPP WILMOT"}},{"geometry": {"type": "Point", "coordinates": [-80.02644399982121, 40.365486999635195]}, "type": "Feature", "id": 286, "properties": {"stop_lat": 40.365487, "zone_id": "1", "stop_lon": -80.026444, "PATRout09": "|RED", "stop_id": "X70025", "stop_name": "PRIVATE R/WAY AT OVERBROOK JCT INBOUND STATION"}},{"geometry": {"type": "Point", "coordinates": [-79.87202200044685, 40.368438200199115]}, "type": "Feature", "id": 287, "properties": {"stop_lat": 40.368438, "zone_id": "2", "stop_lon": -79.872022, "PATRout09": "|53H|55B", "stop_id": "S23080", "stop_name": "HOMEVILLE RD AT AMERICAN MOTORS"}},{"geometry": {"type": "Point", "coordinates": [-80.02609299962248, 40.36551999974429]}, "type": "Feature", "id": 288, "properties": {"stop_lat": 40.36552, "zone_id": "1", "stop_lon": -80.026093, "PATRout09": "|BLLB|BLSV|BRWN", "stop_id": "X70013", "stop_name": "PRIVATE R/WAY AT WILLOW AVE INBOUND STATION"}},{"geometry": {"type": "Point", "coordinates": [-79.98109599956562, 40.36640300032521]}, "type": "Feature", "id": 289, "properties": {"stop_lat": 40.366403, "zone_id": "1", "stop_lon": -79.981096, "PATRout09": "|46A|BR", "stop_id": "S70010", "stop_name": "BROWNSVILLE RD OPP TOWN SQUARE DRVWY"}},{"geometry": {"type": "Point", "coordinates": [-80.0867030004478, 40.36433100019274]}, "type": "Feature", "id": 290, "properties": {"stop_lat": 40.364331, "zone_id": "2", "stop_lon": -80.086703, "PATRout09": "|41B|44U", "stop_id": "X02260", "stop_name": "BOWER HILL RD AT PAINTERS RUN FS"}},{"geometry": {"type": "Point", "coordinates": [-80.02618900021179, 40.36558900012323]}, "type": "Feature", "id": 291, "properties": {"stop_lat": 40.365589, "zone_id": "1", "stop_lon": -80.026189, "PATRout09": "|BLLB|BLSV|BRWN", "stop_id": "X70014", "stop_name": "PRIVATE R/WAY AT WILLOW AVE OUTBOUND STATION"}},{"geometry": {"type": "Point", "coordinates": [-79.98425200011651, 40.366409000308515]}, "type": "Feature", "id": 292, "properties": {"stop_lat": 40.366409, "zone_id": "1", "stop_lon": -79.984252, "PATRout09": "|46F|46G|46H|E", "stop_id": "S70006", "stop_name": "HWY RT 51 AT BRENTWOOD TOWN SQUARE"}},{"geometry": {"type": "Point", "coordinates": [-79.99283400043174, 40.366244000405736]}, "type": "Feature", "id": 293, "properties": {"stop_lat": 40.366244, "zone_id": "1", "stop_lon": -79.992834, "PATRout09": "|46B|46D", "stop_id": "S39970", "stop_name": "PROVOST RD AT CEMETERY ENT"}},{"geometry": {"type": "Point", "coordinates": [-79.85445400013916, 40.36891460034503]}, "type": "Feature", "id": 294, "properties": {"stop_lat": 40.368915, "zone_id": "2", "stop_lon": -79.854454, "PATRout09": "|53H|55B|59", "stop_id": "S27330", "stop_name": "KENNEDY AVE AT WILMOT"}},{"geometry": {"type": "Point", "coordinates": [-79.9297509996261, 40.36753040036576]}, "type": "Feature", "id": 295, "properties": {"stop_lat": 40.36753, "zone_id": "1A", "stop_lon": -79.929751, "PATRout09": "|51E", "stop_id": "S28830", "stop_name": "LEBANON RD AT IRWIN"}},{"geometry": {"type": "Point", "coordinates": [-79.9813309997088, 40.36655990021575]}, "type": "Feature", "id": 296, "properties": {"stop_lat": 40.36656, "zone_id": "1", "stop_lon": -79.981331, "PATRout09": "|35A", "stop_id": "S09650", "stop_name": "BROWNSVILLE RD OPP MEADOWBROOK (#4063)"}},{"geometry": {"type": "Point", "coordinates": [-79.91431099984199, 40.36785089971107]}, "type": "Feature", "id": 297, "properties": {"stop_lat": 40.367851, "zone_id": "1A", "stop_lon": -79.914311, "PATRout09": "|53F", "stop_id": "S25540", "stop_name": "INTERBORO AVE AT RODGERS"}},{"geometry": {"type": "Point", "coordinates": [-79.98126800000362, 40.366584999594835]}, "type": "Feature", "id": 298, "properties": {"stop_lat": 40.366585, "zone_id": "1", "stop_lon": -79.981268, "PATRout09": "|46A|46D|51C|53C|BR", "stop_id": "S70009", "stop_name": "BROWNSVILLE RD AT TOWN SQUARE DRVWY"}},{"geometry": {"type": "Point", "coordinates": [-80.06203800000227, 40.365142999852644]}, "type": "Feature", "id": 299, "properties": {"stop_lat": 40.365143, "zone_id": "1", "stop_lon": -80.062038, "PATRout09": "|36A", "stop_id": "X04320", "stop_name": "CEDAR BLVD OPP #1269"}},{"geometry": {"type": "Point", "coordinates": [-80.0090840004503, 40.36621539973766]}, "type": "Feature", "id": 300, "properties": {"stop_lat": 40.366215, "zone_id": "1", "stop_lon": -80.009084, "PATRout09": "|46B", "stop_id": "S33550", "stop_name": "MCROBERTS RD AT TRANCE"}},{"geometry": {"type": "Point", "coordinates": [-79.96748299975442, 40.36702290028045]}, "type": "Feature", "id": 301, "properties": {"stop_lat": 40.367023, "zone_id": "1", "stop_lon": -79.967483, "PATRout09": "|35A|46A|46F|51B", "stop_id": "S38160", "stop_name": "PARKLINE DR AT #1627"}},{"geometry": {"type": "Point", "coordinates": [-79.91733199997881, 40.36799059990961]}, "type": "Feature", "id": 302, "properties": {"stop_lat": 40.367991, "zone_id": "1A", "stop_lon": -79.917332, "PATRout09": "|53F", "stop_id": "S40830", "stop_name": "RODGERS ST AT COX"}},{"geometry": {"type": "Point", "coordinates": [-79.9103279998886, 40.36819160043186]}, "type": "Feature", "id": 303, "properties": {"stop_lat": 40.368192, "zone_id": "1A", "stop_lon": -79.910328, "PATRout09": "|55M|56C", "stop_id": "S34220", "stop_name": "MIFFLIN RD AT #5419"}},{"geometry": {"type": "Point", "coordinates": [-79.91048400026516, 40.36821779957075]}, "type": "Feature", "id": 304, "properties": {"stop_lat": 40.368218, "zone_id": "1A", "stop_lon": -79.910484, "PATRout09": "|55M", "stop_id": "S34400", "stop_name": "MIFFLIN RD OPP #5419"}},{"geometry": {"type": "Point", "coordinates": [-79.92969899999915, 40.367877900158824]}, "type": "Feature", "id": 305, "properties": {"stop_lat": 40.367878, "zone_id": "1A", "stop_lon": -79.929699, "PATRout09": "|51E", "stop_id": "S28620", "stop_name": "LEBANON RD AT IRWIN"}},{"geometry": {"type": "Point", "coordinates": [-79.87234000041458, 40.36896879974091]}, "type": "Feature", "id": 306, "properties": {"stop_lat": 40.368969, "zone_id": "2", "stop_lon": -79.87234, "PATRout09": "|53H|55B", "stop_id": "S22960", "stop_name": "HOMEVILLE RD AT AMERICAN MOTORS"}},{"geometry": {"type": "Point", "coordinates": [-79.96408200057729, 40.367269400389844]}, "type": "Feature", "id": 307, "properties": {"stop_lat": 40.367269, "zone_id": "1", "stop_lon": -79.964082, "PATRout09": "|35A|46A|46F|51C", "stop_id": "S38200", "stop_name": "PARKLINE DR AT SKYLINE"}},{"geometry": {"type": "Point", "coordinates": [-79.98430700004037, 40.36692740040126]}, "type": "Feature", "id": 308, "properties": {"stop_lat": 40.366927, "zone_id": "1", "stop_lon": -79.984307, "PATRout09": "|46A|46D|46F|46G|46H", "stop_id": "S23600", "stop_name": "HWY RT 51 AT OLD CLAIRTON"}},{"geometry": {"type": "Point", "coordinates": [-80.00912299970385, 40.36651119963476]}, "type": "Feature", "id": 309, "properties": {"stop_lat": 40.366511, "zone_id": "1", "stop_lon": -80.009123, "PATRout09": "|46B", "stop_id": "S33630", "stop_name": "MCROBERTS RD OPP TRANCE"}},{"geometry": {"type": "Point", "coordinates": [-79.97997599956, 40.36709259978591]}, "type": "Feature", "id": 310, "properties": {"stop_lat": 40.367093, "zone_id": "1", "stop_lon": -79.979976, "PATRout09": "|46A|46D|51C|BR", "stop_id": "S08560", "stop_name": "BROWNSVILLE RD AT GRAD FS"}},{"geometry": {"type": "Point", "coordinates": [-79.96697300023988, 40.36737300008913]}, "type": "Feature", "id": 311, "properties": {"stop_lat": 40.367373, "zone_id": "1", "stop_lon": -79.966973, "PATRout09": "|35A|46A|46F|51C", "stop_id": "S38170", "stop_name": "PARKLINE DR AT #1650"}},{"geometry": {"type": "Point", "coordinates": [-80.0146079998638, 40.36647089977824]}, "type": "Feature", "id": 312, "properties": {"stop_lat": 40.366471, "zone_id": "1", "stop_lon": -80.014608, "PATRout09": "|46B", "stop_id": "S29267", "stop_name": "LIBRARY RD AT GROVE"}},{"geometry": {"type": "Point", "coordinates": [-79.91379899995556, 40.36850160030736]}, "type": "Feature", "id": 313, "properties": {"stop_lat": 40.368502, "zone_id": "1A", "stop_lon": -79.913799, "PATRout09": "|53F", "stop_id": "S35340", "stop_name": "MULDOWNEY AVE AT MULDOWNEY LOOP"}},{"geometry": {"type": "Point", "coordinates": [-80.01616300004326, 40.3665879997542]}, "type": "Feature", "id": 314, "properties": {"stop_lat": 40.366588, "zone_id": "1", "stop_lon": -80.016163, "PATRout09": "|BLLB|BLSV|BRWN", "stop_id": "X70011", "stop_name": "PRIVATE R/WAY AT MEMORIAL INBOUND STATION"}},{"geometry": {"type": "Point", "coordinates": [-79.96675600049974, 40.36757070039933]}, "type": "Feature", "id": 315, "properties": {"stop_lat": 40.367571, "zone_id": "1", "stop_lon": -79.966756, "PATRout09": "|35A|46A|46F|51B", "stop_id": "S38220", "stop_name": "PARKLINE DR OPP #1650"}},{"geometry": {"type": "Point", "coordinates": [-80.01622999962491, 40.36665400013493]}, "type": "Feature", "id": 316, "properties": {"stop_lat": 40.366654, "zone_id": "1", "stop_lon": -80.01623, "PATRout09": "|BLLB|BLSV|BRWN", "stop_id": "X70012", "stop_name": "PRIVATE R/WAY AT MEMORIAL OUTBOUND STATION"}},{"geometry": {"type": "Point", "coordinates": [-79.85353600010598, 40.36973670041525]}, "type": "Feature", "id": 317, "properties": {"stop_lat": 40.369737, "zone_id": "2", "stop_lon": -79.853536, "PATRout09": "|53H|55B|59", "stop_id": "S27280", "stop_name": "KENNEDY AVE AT CATHERINE"}},{"geometry": {"type": "Point", "coordinates": [-80.1098689998484, 40.36478270031441]}, "type": "Feature", "id": 318, "properties": {"stop_lat": 40.364783, "zone_id": "2", "stop_lon": -80.109869, "PATRout09": "|29E", "stop_id": "W20290", "stop_name": "CHARTIERS VALLEY SC AT TERMINUS (OLD RAX)"}},{"geometry": {"type": "Point", "coordinates": [-79.99362999950957, 40.36710559968385]}, "type": "Feature", "id": 319, "properties": {"stop_lat": 40.367106, "zone_id": "1", "stop_lon": -79.99363, "PATRout09": "|46B", "stop_id": "S40020", "stop_name": "PROVOST RD AT WHITEHALL"}},{"geometry": {"type": "Point", "coordinates": [-79.91364999971186, 40.36867579958361]}, "type": "Feature", "id": 320, "properties": {"stop_lat": 40.368676, "zone_id": "1A", "stop_lon": -79.91365, "PATRout09": "|53F", "stop_id": "S35300", "stop_name": "MULDOWNEY AVE AT INTERBORO"}},{"geometry": {"type": "Point", "coordinates": [-79.97890600030534, 40.36744930034187]}, "type": "Feature", "id": 321, "properties": {"stop_lat": 40.367449, "zone_id": "1", "stop_lon": -79.978906, "PATRout09": "|46A|46D|BR", "stop_id": "S08280", "stop_name": "BROWNSVILLE RD AT BRENTRIDGE FS"}},{"geometry": {"type": "Point", "coordinates": [-79.99355900012769, 40.36716989955148]}, "type": "Feature", "id": 322, "properties": {"stop_lat": 40.36717, "zone_id": "1", "stop_lon": -79.993559, "PATRout09": "|46B|46D", "stop_id": "S40090", "stop_name": "PROVOST RD OPP WHITEHALL CIR"}},{"geometry": {"type": "Point", "coordinates": [-79.9174519996575, 40.368636499735345]}, "type": "Feature", "id": 323, "properties": {"stop_lat": 40.368637, "zone_id": "1A", "stop_lon": -79.917452, "PATRout09": "|53F", "stop_id": "S13660", "stop_name": "COX AVE AT MULDOWNEY"}},{"geometry": {"type": "Point", "coordinates": [-80.07451000000529, 40.36563200011542]}, "type": "Feature", "id": 324, "properties": {"stop_lat": 40.365632, "zone_id": "1", "stop_lon": -80.07451, "PATRout09": "|41B", "stop_id": "X17020", "stop_name": "SOMERVILLE DR AT SHIREVILLE"}},{"geometry": {"type": "Point", "coordinates": [-79.91570100037679, 40.36873280020736]}, "type": "Feature", "id": 325, "properties": {"stop_lat": 40.368733, "zone_id": "1A", "stop_lon": -79.915701, "PATRout09": "|53F", "stop_id": "S35350", "stop_name": "MULDOWNEY AVE OPP MARGARET"}},{"geometry": {"type": "Point", "coordinates": [-79.96443600020949, 40.367814399637986]}, "type": "Feature", "id": 326, "properties": {"stop_lat": 40.367814, "zone_id": "1", "stop_lon": -79.964436, "PATRout09": "|35A|46A|46F|51B", "stop_id": "S38190", "stop_name": "PARKLINE DR AT #1721"}},{"geometry": {"type": "Point", "coordinates": [-80.07430499946908, 40.36565949972836]}, "type": "Feature", "id": 327, "properties": {"stop_lat": 40.36566, "zone_id": "1", "stop_lon": -80.074305, "PATRout09": "|41B", "stop_id": "X12680", "stop_name": "OXFORD BLVD AT SOMERVILLE"}},{"geometry": {"type": "Point", "coordinates": [-79.9784000004527, 40.3675637002716]}, "type": "Feature", "id": 328, "properties": {"stop_lat": 40.367564, "zone_id": "1", "stop_lon": -79.9784, "PATRout09": "|46A|46D|51C|BR", "stop_id": "S08270", "stop_name": "BROWNSVILLE RD AT BRENTRIDGE FS"}},{"geometry": {"type": "Point", "coordinates": [-80.01428499944242, 40.36689829983507]}, "type": "Feature", "id": 329, "properties": {"stop_lat": 40.366898, "zone_id": "1", "stop_lon": -80.014285, "PATRout09": "|46B", "stop_id": "S29268", "stop_name": "LIBRARY RD AT GROVE"}},{"geometry": {"type": "Point", "coordinates": [-79.99914300042349, 40.3672794996922]}, "type": "Feature", "id": 330, "properties": {"stop_lat": 40.36728, "zone_id": "1", "stop_lon": -79.999143, "PATRout09": "|46B|BM", "stop_id": "S48589", "stop_name": "WEYMAN RD OPP FOXWOOD MANOR APTS"}},{"geometry": {"type": "Point", "coordinates": [-79.96545600035218, 40.36793109957161]}, "type": "Feature", "id": 331, "properties": {"stop_lat": 40.367931, "zone_id": "1", "stop_lon": -79.965456, "PATRout09": "|35A|46A|46F|51C", "stop_id": "S38230", "stop_name": "PARKLINE DR AT #1695"}},{"geometry": {"type": "Point", "coordinates": [-79.99910499945238, 40.36730690016795]}, "type": "Feature", "id": 332, "properties": {"stop_lat": 40.367307, "zone_id": "1", "stop_lon": -79.999105, "PATRout09": "|46B|BM", "stop_id": "S48557", "stop_name": "WEYMAN RD AT FOXWOOD MANOR APTS"}},{"geometry": {"type": "Point", "coordinates": [-80.10826799991078, 40.365143899828624]}, "type": "Feature", "id": 333, "properties": {"stop_lat": 40.365144, "zone_id": "2", "stop_lon": -80.108268, "PATRout09": "|31D|31E|33D|33E|36A", "stop_id": "W24600", "stop_name": "WASHINGTON PIKE AT ANDERSON EQUIPMENT"}},{"geometry": {"type": "Point", "coordinates": [-79.96536300008789, 40.36799100030779]}, "type": "Feature", "id": 334, "properties": {"stop_lat": 40.367991, "zone_id": "1", "stop_lon": -79.965363, "PATRout09": "|35A|46A|46F|51B", "stop_id": "S38180", "stop_name": "PARKLINE DR AT #1695"}},{"geometry": {"type": "Point", "coordinates": [-79.85270899977792, 40.37025150006781]}, "type": "Feature", "id": 335, "properties": {"stop_lat": 40.370252, "zone_id": "2", "stop_lon": -79.852709, "PATRout09": "|53H|55B|59", "stop_id": "S27260", "stop_name": "KENNEDY AVE AT AURILES"}},{"geometry": {"type": "Point", "coordinates": [-80.06116799947574, 40.36633300012448]}, "type": "Feature", "id": 336, "properties": {"stop_lat": 40.366333, "zone_id": "1", "stop_lon": -80.061168, "PATRout09": "|36A", "stop_id": "X04165", "stop_name": "CEDAR BLVD AT #1241"}},{"geometry": {"type": "Point", "coordinates": [-79.98380499980219, 40.36788999976055]}, "type": "Feature", "id": 337, "properties": {"stop_lat": 40.36789, "zone_id": "1", "stop_lon": -79.983805, "PATRout09": "|46A|46D|46F|46G|46H", "stop_id": "S24525", "stop_name": "HWY RT 51 AT #4040"}},{"geometry": {"type": "Point", "coordinates": [-79.9108649997783, 40.36933089968805]}, "type": "Feature", "id": 338, "properties": {"stop_lat": 40.369331, "zone_id": "1A", "stop_lon": -79.910865, "PATRout09": "|55M|56C", "stop_id": "S34340", "stop_name": "MIFFLIN RD OPP MCBRIDE"}},{"geometry": {"type": "Point", "coordinates": [-79.98350799998752, 40.367969499634135]}, "type": "Feature", "id": 339, "properties": {"stop_lat": 40.36797, "zone_id": "1", "stop_lon": -79.983508, "PATRout09": "|46D|46F|46G|46H|E", "stop_id": "S24025", "stop_name": "HWY RT 51 AT PIZZA HUT"}},{"geometry": {"type": "Point", "coordinates": [-79.85273700010606, 40.37045569989299]}, "type": "Feature", "id": 340, "properties": {"stop_lat": 40.370456, "zone_id": "2", "stop_lon": -79.852737, "PATRout09": "|53H|55B", "stop_id": "S04960", "stop_name": "AURILES ST AT KENNEDY"}},{"geometry": {"type": "Point", "coordinates": [-79.9106329998947, 40.36939309957618]}, "type": "Feature", "id": 341, "properties": {"stop_lat": 40.369393, "zone_id": "1A", "stop_lon": -79.910633, "PATRout09": "|55M|56C", "stop_id": "S34150", "stop_name": "MIFFLIN RD AT MCBRIDE NS"}},{"geometry": {"type": "Point", "coordinates": [-79.91268500005363, 40.36938010014597]}, "type": "Feature", "id": 342, "properties": {"stop_lat": 40.36938, "zone_id": "1A", "stop_lon": -79.912685, "PATRout09": "|53F", "stop_id": "S06220", "stop_name": "BEGGS ST AT MIFFLIN"}},{"geometry": {"type": "Point", "coordinates": [-80.10802899962182, 40.3656224996182]}, "type": "Feature", "id": 343, "properties": {"stop_lat": 40.365623, "zone_id": "2", "stop_lon": -80.108029, "PATRout09": "|31D|31E|33D|33E|36C|38C", "stop_id": "W24745", "stop_name": "WASHINGTON PIKE AT CHARTIERS VALLEY SC"}},{"geometry": {"type": "Point", "coordinates": [-80.11540299978864, 40.36548609969809]}, "type": "Feature", "id": 344, "properties": {"stop_lat": 40.365486, "zone_id": "2", "stop_lon": -80.115403, "PATRout09": "|31D", "stop_id": "W19980", "stop_name": "PRESTLEY RD OPP JONES"}},{"geometry": {"type": "Point", "coordinates": [-80.06130500044759, 40.366583000022686]}, "type": "Feature", "id": 345, "properties": {"stop_lat": 40.366583, "zone_id": "1", "stop_lon": -80.061305, "PATRout09": "|36A", "stop_id": "X04210", "stop_name": "CEDAR BLVD OPP BEADLING"}},{"geometry": {"type": "Point", "coordinates": [-79.91275799946817, 40.369495500298484]}, "type": "Feature", "id": 346, "properties": {"stop_lat": 40.369495, "zone_id": "1A", "stop_lon": -79.912758, "PATRout09": "|53F", "stop_id": "S06240", "stop_name": "BEGGS ST AT MIFFIN FS"}},{"geometry": {"type": "Point", "coordinates": [-80.07388299977704, 40.366414399780595]}, "type": "Feature", "id": 347, "properties": {"stop_lat": 40.366414, "zone_id": "1", "stop_lon": -80.073883, "PATRout09": "|41B", "stop_id": "X12660", "stop_name": "OXFORD BLVD AT #675"}},{"geometry": {"type": "Point", "coordinates": [-80.0739659998525, 40.36642400002115]}, "type": "Feature", "id": 348, "properties": {"stop_lat": 40.366424, "zone_id": "1", "stop_lon": -80.073966, "PATRout09": "|41B", "stop_id": "X12670", "stop_name": "OXFORD BLVD AT #676"}},{"geometry": {"type": "Point", "coordinates": [-80.10717700047205, 40.365823000205665]}, "type": "Feature", "id": 349, "properties": {"stop_lat": 40.365823, "zone_id": "2", "stop_lon": -80.107177, "PATRout09": "|31D|31E|33D|33E|36A|36C|38C", "stop_id": "W24780", "stop_name": "WASHINGTON PIKE AT MAYER"}},